stop_id,stop_code,stop_name,stop_desc,stop_lat,stop_lon,zone_id,stop_url,location_type,parent_station,stop_timezone,wheelchair_boarding
5387,5387,"WASHINGTON AVE + JAMES ST",,40.356150,-80.113583,,,,,,0
5389,5389,"WASHINGTON AVE + MURRAY",,40.360333,-80.111396,,,,,,0
5390,5390,"WASHINGTON PIKE + SCHULTE",,40.362932,-80.110293,,,,,,0
5391,5391,"WASHINGTON PIKE + ANDERSON EQUIPMENT",,40.364544,-80.109230,,,,,,0
5392,5392,"WASHINGTON PIKE + MAYER",,40.365906,-80.107231,,,,,,0
5393,5393,"WASHINGTON PIKE + BANK OF AMERICA",,40.367592,-80.104187,,,,,,0
5394,5394,"WASHINGTON PIKE + GREAT SOUTHERN SHPG CTR",,40.368303,-80.102929,,,,,,0
5395,5395,"WASHINGTON PIKE + BERAM FS",,40.368943,-80.101863,,,,,,0
5396,5396,"WASHINGTON PIKE + VANADIUM",,40.370075,-80.100845,,,,,,0
5398,5398,"WASHINGTON PIKE + WINSTEIN",,40.373741,-80.099106,,,,,,0
5399,5399,"WASHINGTON PIKE + STEEN",,40.376175,-80.097809,,,,,,0
5401,5401,"WASHINGTON PIKE + #1375",,40.379403,-80.095900,,,,,,0
5403,5403,"RACEWAY FIRELANE + SHOP N SAVE",,40.387951,-80.093620,,,,,,0
5405,5405,"WASHINGTON AVE + MAIN",,40.409135,-80.083601,,,,,,0
5406,5406,"MAIN ST + CHESTNUT",,40.410029,-80.082633,,,,,,0
5407,5407,"NOBLESTOWN RD + IDLEWOOD",,40.413247,-80.078008,,,,,,0
5408,5408,"NOBLESTOWN RD + DUNCAN",,40.413083,-80.075495,,,,,,0
5409,5409,"NOBLESTOWN RD + ALTER",,40.413765,-80.073312,,,,,,0
5411,5411,"NOBLESTOWN RD + #640",,40.415791,-80.070707,,,,,,0
5412,5412,"NOBLESTOWN RD + HAWTHORNE",,40.416294,-80.067123,,,,,,0
5413,5413,"NOBLESTOWN RD + MANSFIELD FS",,40.417135,-80.066124,,,,,,0
5414,5414,"NOBLESTOWN RD + #2793",,40.419037,-80.066485,,,,,,0
5416,5416,"NOBLESTOWN RD + BRENFORD",,40.420562,-80.066827,,,,,,0
5418,5418,"NOBLESTOWN RD + DURBIN",,40.423628,-80.066591,,,,,,0
5419,5419,"NOBLESTOWN RD + HOLIDAY DR",,40.426341,-80.061945,,,,,,0
5420,5420,"NOBLESTOWN RD + SCHOOL",,40.426422,-80.057121,,,,,,0
5421,5421,"NOBLESTOWN RD + NOBLE MANOR (COGOS)",,40.427067,-80.055400,,,,,,0
5422,5422,"NOBLESTOWN RD + POPLAR",,40.427818,-80.053781,,,,,,0
5423,5423,"NOBLESTOWN RD + #2212",,40.429879,-80.053421,,,,,,0
5424,5424,"NOBLESTOWN RD + #2148 (SHOP-N-SAVE DR #1)",,40.431142,-80.053322,,,,,,0
5425,5425,"NOBLESTOWN RD + #2120 (SHOP-N-SAVE DR #2)",,40.431806,-80.052764,,,,,,0
5427,5427,"NOBLESTOWN RD + COLESCOTT",,40.434235,-80.050202,,,,,,0
5428,5428,"NOBLESTOWN RD + DENISONVIEW",,40.435102,-80.050413,,,,,,0
5429,5429,"NOBLESTOWN RD + BARTOW",,40.436208,-80.052019,,,,,,0
5430,5430,"NOBLESTOWN RD + CRAFTON",,40.437486,-80.053761,,,,,,0
5458,5458,"GREENTREE RD + MANSFIELD FS",,40.422491,-80.045508,,,,,,0
5460,5460,"GREENTREE RD + PARKWAY CENTER DR SOUTH",,40.424606,-80.042834,,,,,,0
5461,5461,"NOBLESTOWN RD + CRAFTON FS",,40.437477,-80.053848,,,,,,0
5462,5462,"NOBLESTOWN RD + BARTOW",,40.436195,-80.052139,,,,,,0
5463,5463,"NOBLESTOWN RD + DENISONVIEW",,40.435053,-80.050533,,,,,,0
5464,5464,"NOBLESTOWN RD + HARRIS FS",,40.434116,-80.050350,,,,,,0
5465,5465,"NOBLESTOWN RD + #2094",,40.432745,-80.051798,,,,,,0
5466,5466,"NOBLESTOWN RD + #2128",,40.431988,-80.052700,,,,,,0
5467,5467,"NOBLESTOWN RD + FIRE STATION (#2200)",,40.431121,-80.053458,,,,,,0
5468,5468,"NOBLESTOWN RD + #2212",,40.429811,-80.053529,,,,,,0
5469,5469,"NOBLESTOWN RD + POPLAR",,40.428149,-80.053674,,,,,,0
5470,5470,"NOBLESTOWN RD + NOBLE MANOR (RITE AID)",,40.427084,-80.055592,,,,,,0
5471,5471,"NOBLESTOWN RD + BALDWICK",,40.426636,-80.056706,,,,,,0
5480,5480,"NOBLESTOWN RD + HAWTHORNE",,40.416189,-80.067468,,,,,,0
5481,5481,"NOBLESTOWN RD + #640",,40.415859,-80.070763,,,,,,0
5483,5483,"NOBLESTOWN RD + ALTER",,40.413893,-80.073256,,,,,,0
5484,5484,"NOBLESTOWN RD + DUNCAN FS",,40.413128,-80.075347,,,,,,0
5485,5485,"NOBLESTOWN RD + IDLEWOOD",,40.413371,-80.076804,,,,,,0
5490,5490,"WASHINGTON PIKE + STEEN",,40.376324,-80.097860,,,,,,0
5491,5491,"WASHINGTON PIKE + WINSTEIN",,40.374050,-80.099162,,,,,,0
5493,5493,"WASHINGTON PIKE + VANADIUM",,40.370472,-80.100718,,,,,,0
5494,5494,"WASHINGTON PIKE + GREAT SOUTHERN SC ENT #1",,40.368758,-80.102365,,,,,,0
5495,5495,"WASHINGTON PIKE + GREAT SOUTHERN SC ENT #2",,40.367714,-80.104225,,,,,,0
5497,5497,"WASHINGTON PIKE + MAYER",,40.366212,-80.106937,,,,,,0
5498,5498,"WASHINGTON PIKE + CHARTIERS VALLEY SC",,40.365601,-80.108075,,,,,,0
5499,5499,"WASHINGTON AVE + PRESTLEY",,40.362701,-80.110473,,,,,,0
5500,5500,"WASHINGTON AVE + MURRAY",,40.360294,-80.111523,,,,,,0
5524,5524,"NOBLESTOWN RD + HOLIDAY DR",,40.426431,-80.061660,,,,,,0
5525,5525,"NOBLESTOWN RD + PACE",,40.424904,-80.065741,,,,,,0
5526,5526,"NOBLESTOWN RD + DURBIN",,40.423801,-80.066531,,,,,,0
5528,5528,"NOBLESTOWN RD + MORANGE",,40.420840,-80.066969,,,,,,0
5530,5530,"NOBLESTOWN RD + #2793",,40.419055,-80.066564,,,,,,0
5551,5551,"PARKWAY CTR DR SOUTH + BUILDING #7",,40.423579,-80.041033,,,,,,0
5552,5552,"GREENTREE RD + WARRIORS",,40.424250,-80.043385,,,,,,0
5553,5553,"GREENTREE RD + MANSFIELD",,40.422172,-80.046055,,,,,,0
5560,20287,"EAST BUSWAY + PENN STATION A",,40.443896,-79.992074,,,,,,0
5564,5564,"GRANT ST + OLIVER",,40.440094,-79.996232,,,,,,0
5588,5588,"3RD ST + MAIN",,40.404453,-80.091119,,,,,,0
5595,5595,"CAROTHERS AVE + WASHINGTON",,40.395715,-80.086949,,,,,,0
5655,5655,"GREENTREE RD + FOREST FS",,40.405522,-80.054181,,,,,,0
5656,5656,"GREENTREE RD + BANBURY",,40.406342,-80.053023,,,,,,0
5657,5657,"GREENTREE RD + POTOMAC",,40.408367,-80.050176,,,,,,0
5659,5659,"GREENTREE RD + ORIOLE",,40.410280,-80.047472,,,,,,0
5660,5660,"GREENTREE RD + ORCHARD",,40.412117,-80.045942,,,,,,0
5661,5661,"GREENTREE RD + CARNAHAN",,40.414111,-80.045016,,,,,,0
5663,5663,"GREENTREE RD + MANILLA FS",,40.418682,-80.045713,,,,,,0
5736,5736,"GREENTREE RD + MANILLA",,40.418648,-80.045868,,,,,,0
5738,5738,"GREENTREE RD + CARNAHAN",,40.414317,-80.045095,,,,,,0
5739,5739,"GREENTREE RD + ORCHARD",,40.412212,-80.045994,,,,,,0
5740,5740,"GREENTREE RD + ORIOLE",,40.410360,-80.047495,,,,,,0
5742,5742,"GREENTREE RD + POTOMAC",,40.408620,-80.049956,,,,,,0
5743,5743,"GREENTREE RD + BANBURY",,40.406612,-80.052778,,,,,,0
5744,5744,"GREENTREE RD + FOREST",,40.405559,-80.054260,,,,,,0
5795,5795,"GREENTREE RD + LINDSAY",,40.386087,-80.084647,,,,,,0
5796,5796,"LINDSAY RD + #443",,40.384201,-80.084457,,,,,,0
5797,5797,"LINDSAY RD + #509",,40.382390,-80.085733,,,,,,0
5798,5798,"LINDSAY RD + #559",,40.382298,-80.084168,,,,,,0
5799,5799,"LINDSAY RD + #601",,40.383133,-80.082512,,,,,,0
5800,5800,"LINDSAY RD + WYNNECLIFF #1",,40.383671,-80.080521,,,,,,0
5801,5801,"LINDSAY RD + #722",,40.385452,-80.079277,,,,,,0
5802,5802,"LINDSAY RD + WYNNECLIFF #2",,40.387322,-80.079396,,,,,,0
5804,5804,"LINDSAY RD + CLAIREVIEW",,40.387955,-80.077438,,,,,,0
5805,5805,"LINDSAY RD + GREENVIEW",,40.386883,-80.076523,,,,,,0
5807,5807,"LINDSAY RD + CHERRYTREE",,40.385494,-80.074008,,,,,,0
5809,5809,"LINDSAY RD + SWALLOW HILL",,40.384605,-80.070679,,,,,,0
5811,5811,"SWALLOW HILL RD + THE KNOLLS",,40.387276,-80.073708,,,,,,0
5813,5813,"SWALLOW HILL RD + THE BOURSE",,40.389176,-80.073972,,,,,,0
5819,5819,"GREENTREE RD + FORSYTHE",,40.399517,-80.064987,,,,,,0
5820,5820,"GREENTREE RD + GREEN OAK NS",,40.401118,-80.063307,,,,,,0
5822,5822,"GREENTREE RD + CHATHAM PARK",,40.403345,-80.058376,,,,,,0
5860,5860,"GREENTREE RD + RYAN",,40.402916,-80.060647,,,,,,0
5861,5861,"GREENTREE RD + GREEN OAK",,40.401536,-80.063061,,,,,,0
5862,5862,"GREENTREE RD AT COVENANT CHURCH PARK AND RIDE",,40.400571,-80.064294,,,,,,0
5863,5863,"GREENTREE RD + FORSYTHE",,40.399857,-80.065010,,,,,,0
5878,5878,"GREENTREE RD + GREENBRIAR",,40.398529,-80.065668,,,,,,0
5879,5879,"GREENTREE ROAD + LEADER COUNTRY DR",,40.396586,-80.066160,,,,,,0
5880,5880,"GREENTREE RD + MANORVIEW",,40.394717,-80.066373,,,,,,0
5881,5881,"GREENTREE RD + # 2080",,40.391972,-80.069099,,,,,,0
5882,5882,"GREENTREE RD + VIRGINIA MANSIONS",,40.391672,-80.071292,,,,,,0
5883,5883,"SWALLOW HILL RD + GREENTREE FS",,40.390078,-80.074184,,,,,,0
5884,5884,"SWALLOW HILL RD + THE BOURSE",,40.389250,-80.074122,,,,,,0
5885,5885,"SWALLOW HILL RD + NOB HILL APTS DRIVE",,40.387931,-80.074016,,,,,,0
5887,5887,"LINDSAY RD + SWALLOW HILL FS",,40.384462,-80.071032,,,,,,0
5889,5889,"LINDSAY RD + CHERRYTREE",,40.385473,-80.073849,,,,,,0
5891,5891,"LINDSAY RD + GREENVIEW FS",,40.386926,-80.076484,,,,,,0
5892,5892,"LINDSAY RD + CLAIREVIEW",,40.387852,-80.077364,,,,,,0
5893,5893,"LINDSAY RD + #834",,40.388636,-80.078271,,,,,,0
5894,5894,"LINDSAY RD + WYNNECLIFF #1",,40.387481,-80.079484,,,,,,0
5896,5896,"LINDSAY RD + WYNNECLIFF #2",,40.383789,-80.080301,,,,,,0
5897,5897,"LINDSAY RD + #601",,40.383129,-80.082710,,,,,,0
5898,5898,"LINDSAY RD + #559",,40.382220,-80.084368,,,,,,0
5899,5899,"LINDSAY RD + #509",,40.382134,-80.085701,,,,,,0
5900,5900,"LINDSAY RD + #443",,40.384186,-80.084380,,,,,,0
5901,5901,"LINDSAY RD + GREENTREE",,40.386117,-80.084266,,,,,,0
5922,5922,"SECOND AVE + MUNICIPAL COURTS DR FS",,40.435982,-79.995478,,,,,,0
5923,5923,"BLVD OF ALLIES + CHERRY WAY FS",,40.437661,-79.999664,,,,,,0
5928,5928,"FT COUCH RD + MEDICAL ARTS BLDG",,40.340878,-80.052343,,,,,,0
5929,5929,"OXFORD DR + THOMAS MORE MANOR",,40.343425,-80.051929,,,,,,0
5931,5931,"OXFORD DR + GIANT EAGLE",,40.346526,-80.048560,,,,,,0
5932,5932,"OXFORD DR + VILLAGE SQUARE UPPER ENT",,40.347887,-80.049638,,,,,,0
5950,5950,"WASHINGTON RD + SHADY DR",,40.383109,-80.043827,,,,,,0
6002,6002,"WASHINGTON RD + FLORENCE PL",,40.384457,-80.043904,,,,,,0
6018,6018,"OXFORD DR + GIANT EAGLE",,40.346680,-80.048845,,,,,,0
6056,6056,"BOWER HILL RD + LIBERTY",,40.359022,-80.108893,,,,,,0
6081,6081,"PIONEER AVE + BELLAIRE",,40.397164,-80.023215,,,,,,0
6082,6082,"PIONEER AVE + ROSSMORE",,40.397892,-80.022880,,,,,,0
6084,6084,"PIONEER AVE + BERWIN",,40.399156,-80.021201,,,,,,0
6085,6085,"PIONEER AVE + METZ",,40.400098,-80.020180,,,,,,0
6086,6086,"PIONEER AVE + BELLBROOK",,40.401149,-80.018511,,,,,,0
6088,6088,"PIONEER AVE + DUNSTER",,40.402386,-80.015965,,,,,,0
6090,6090,"PIONEER AVE + STETSON",,40.405443,-80.015050,,,,,,0
6091,6091,"PIONEER AVE + SOUTHCREST",,40.406925,-80.014989,,,,,,0
6092,6092,"PIONEER AVE + NORTHCREST",,40.409412,-80.013843,,,,,,0
6093,6093,"PIONEER AVE RAMP + SOUTH BUSWAY",,40.411828,-80.009028,,,,,,0
6094,6094,"SOUTH BUSWAY + PALM GARDEN",,40.416432,-80.011833,,,,,,0
6095,6095,"SOUTH BUSWAY + SOUTH HILLS JCT",,40.421255,-80.006804,,,,,,0
6096,6096,"SMITHFIELD ST BRIDGE + STATION SQUARE",,40.432960,-80.003494,,,,,,0
6098,6098,"SOUTH BUSWAY + PALM GARDEN",,40.416100,-80.011821,,,,,,0
6099,6099,"PIONEER AVE RAMP + PIONEER",,40.411808,-80.009236,,,,,,0
6100,6100,"PIONEER AVE + NORTHCREST",,40.409286,-80.014301,,,,,,0
6102,6102,"PIONEER AVE + STETSON",,40.405731,-80.015063,,,,,,0
6104,6104,"PIONEER AVE + DUNSTER",,40.402537,-80.015976,,,,,,0
6106,6106,"PIONEER AVE + BELLBROOK",,40.401254,-80.018092,,,,,,0
6108,6108,"PIONEER AVE + BERWIN",,40.399220,-80.021223,,,,,,0
6110,6110,"PIONEER AVE + ROSSMORE",,40.398101,-80.022722,,,,,,0
6151,6151,"WEST LIBERTY AVE + DORMONT AVE",,40.391328,-80.038927,,,,,,0
6154,6154,"WEST LIBERTY AVE + ILLINOIS (POTOMAC)",,40.395175,-80.033986,,,,,,0
6161,6161,"BROOKLINE BLVD + CASTLEGATE",,40.394996,-80.021754,,,,,,0
6162,6162,"BROOKLINE BLVD + FLATBUSH",,40.393712,-80.020141,,,,,,0
6163,6163,"BROOKLINE BLVD + STEBBINS",,40.393150,-80.019200,,,,,,0
6164,6164,"CHELTON AVE + QUEENSBORO",,40.391615,-80.017159,,,,,,0
6165,6165,"CHELTON AVE + OAKRIDGE",,40.389858,-80.014770,,,,,,0
6166,6166,"CHELTON AVE + FREEDOM",,40.388400,-80.012749,,,,,,0
6168,6168,"FREEDOM AVE + WAREMAN",,40.389410,-80.011288,,,,,,0
6169,6169,"FREEDOM AVE + MERRICK",,40.390076,-80.010468,,,,,,0
6170,6170,"MERRICK AVE + HOBSON",,40.389546,-80.009648,,,,,,0
6185,6185,"BROOKLINE BLVD + #1439",,40.392418,-80.007500,,,,,,0
6186,6186,"BROOKLINE BLVD + GREENCREST",,40.392350,-80.005410,,,,,,0
6187,6187,"BROOKLINE BLVD + #1572",,40.391224,-80.003094,,,,,,0
6188,6188,"BROOKLINE BLVD + ALTMAR",,40.391062,-80.000491,,,,,,0
6189,6189,"ALTMAR ST + REAMER",,40.391498,-80.000247,,,,,,0
6190,6190,"REAMER ST + #1555",,40.391900,-80.002648,,,,,,0
6191,6191,"BROOKLINE BLVD + GREENCREST",,40.392266,-80.005128,,,,,,0
6192,6192,"BROOKLINE BLVD + #1439",,40.392472,-80.007161,,,,,,0
6193,6193,"BROOKLINE BLVD + BREINING",,40.392329,-80.010706,,,,,,0
6198,6198,"BROOKLINE BLVD + FLATBUSH",,40.393720,-80.019839,,,,,,0
6199,6199,"BROOKLINE BLVD + CASTLEGATE",,40.394817,-80.021351,,,,,,0
6205,6205,"WEST LIBERTY AVE + WISCONSIN",,40.393816,-80.036110,,,,,,0
6207,6207,"WEST LIBERTY AVE + PARK",,40.391242,-80.039256,,,,,,0
6240,6240,"WINFIELD ST + BANK",,40.350401,-80.104623,,,,,,0
6242,6242,"BANK ST + GRANDVIEW",,40.353044,-80.105706,,,,,,0
6243,6243,"BANK ST + ELM",,40.353823,-80.106611,,,,,,0
6244,6244,"BANK ST + CHESTNUT",,40.354515,-80.107620,,,,,,0
6245,6245,"BANK ST + GREGG",,40.355091,-80.108475,,,,,,0
6246,6246,"BANK ST + DEWEY",,40.356213,-80.110138,,,,,,0
6248,6248,"RAILROAD ST + #435 (STATION)",,40.358235,-80.110379,,,,,,0
6250,6250,"BOWER HILL RD + #736",,40.358621,-80.103978,,,,,,0
6251,6251,"BOWER HILL RD + #802",,40.359865,-80.101768,,,,,,0
6253,6253,"BOWER HILL RD + SYLVA",,40.362106,-80.097878,,,,,,0
6258,6258,"BOWER HILL RD + ROCKHILL",,40.366595,-80.086370,,,,,,0
6260,6260,"VANADIUM RD + ELMBROOK",,40.369478,-80.085734,,,,,,0
6263,6263,"VANADIUM RD + VOLUNTEER FIRE COMPANY",,40.374319,-80.092305,,,,,,0
6265,6265,"MAIN ST + #1737",,40.376844,-80.092911,,,,,,0
6267,6267,"KANE BLVD + DAVIS",,40.378016,-80.091450,,,,,,0
6268,6268,"KANE BLVD + HUGHES",,40.377249,-80.090478,,,,,,0
6269,6269,"KANE BLVD + ELM",,40.375889,-80.088639,,,,,,0
6270,6270,"KANE BLVD + INSTITUTION DR (KANE CTR)",,40.375371,-80.087923,,,,,,0
6272,6272,"KANE BLVD + CHURCH RECTORY",,40.373069,-80.083982,,,,,,0
6275,6275,"BOWER HILL RD + KELSO",,40.371967,-80.077895,,,,,,0
6276,6276,"BOWER HILL RD + CLEMSON",,40.372440,-80.076477,,,,,,0
6277,6277,"BOWER HILL RD + PAT HAVEN",,40.373246,-80.075587,,,,,,0
6278,6278,"BOWER HILL RD + SYLVANDELL",,40.374374,-80.073425,,,,,,0
6280,6280,"BOWER HILL RD + FIRWOOD",,40.376167,-80.067837,,,,,,0
6281,6281,"BOWER HILL RD + LAKEMONT (ST CLAIR HOSP)",,40.377887,-80.065164,,,,,,0
6282,6282,"BOWER HILL RD + PARKVIEW",,40.379760,-80.063136,,,,,,0
6283,6283,"BOWER HILL RD + CARNEGIE",,40.383189,-80.056427,,,,,,0
6284,6284,"BOWER HILL RD + COCHRAN RD",,40.384864,-80.053572,,,,,,0
6285,6285,"BOWER HILL RD + MARLIN",,40.385667,-80.050321,,,,,,0
6286,6286,"BOWER HILL RD + RALSTON",,40.386325,-80.047861,,,,,,0
6288,6288,"WEST LIBERTY AVE + BLAINE",,40.396783,-80.030414,,,,,,0
6289,6289,"WEST LIBERTY AVE + #2665",,40.397479,-80.028444,,,,,,0
6291,6291,"WEST LIBERTY AVE + BROOKLINE BLVD FS",,40.398558,-80.025756,,,,,,0
6293,6293,"WEST LIBERTY AVE + PAULINE",,40.401657,-80.022164,,,,,,0
6296,6296,"WEST LIBERTY AVE + CAPE MAY",,40.408332,-80.017760,,,,,,0
6299,6299,"SOUTH BUSWAY + DAWN AVE SHELTER",,40.412922,-80.010819,,,,,,0
6400,6400,"SOUTH BUSWAY + DAWN AVE SHELTER",,40.413133,-80.010907,,,,,,0
6401,6401,"WEST LIBERTY AVE + BROOKSIDE",,40.410571,-80.015487,,,,,,0
6402,6402,"WEST LIBERTY AVE + CAPE MAY",,40.408661,-80.017676,,,,,,0
6403,6403,"WEST LIBERTY AVE + CURRANHILL",,40.405405,-80.018885,,,,,,0
6405,6405,"WEST LIBERTY AVE + PAULINE",,40.401903,-80.022071,,,,,,0
6406,6406,"WEST LIBERTY AVE + BELLE ISLE",,40.400392,-80.023626,,,,,,0
6407,6407,"WEST LIBERTY AVE + WENZELL",,40.398453,-80.026140,,,,,,0
6408,6408,"WEST LIBERTY AVE + #2666",,40.397784,-80.027957,,,,,,0
6409,6409,"WEST LIBERTY AVE + LASALLE",,40.396705,-80.031013,,,,,,0
6410,6410,"WASHINGTON RD + BOWER HILL",,40.387057,-80.043758,,,,,,0
6411,6411,"BOWER HILL RD + N MEADOWCROFT",,40.386734,-80.045844,,,,,,0
6412,6412,"BOWER HILL RD + RALSTON",,40.386426,-80.047699,,,,,,0
6413,6413,"BOWER HILL RD + MARLIN",,40.385850,-80.049954,,,,,,0
6414,6414,"BOWER HILL RD + COCHRAN RD FS",,40.384890,-80.053923,,,,,,0
6415,6415,"BOWER HILL RD + PARKVIEW",,40.380076,-80.062897,,,,,,0
6416,6416,"BOWER HILL RD + SEGAR",,40.378362,-80.064644,,,,,,0
6417,6417,"BOWER HILL RD + N WREN",,40.376584,-80.067407,,,,,,0
6418,6418,"BOWER HILL RD + BOWER HILL APTS",,40.375458,-80.069763,,,,,,0
6420,6420,"BOWER HILL RD + SYLVANDELL",,40.374384,-80.073710,,,,,,0
6421,6421,"BOWER HILL RD + PAT HAVEN",,40.373441,-80.075562,,,,,,0
6422,6422,"BOWER HILL RD + CLEMSON",,40.372632,-80.076426,,,,,,0
6423,6423,"BOWER HILL RD + KELSO",,40.372076,-80.077913,,,,,,0
6425,6425,"BOWER HILL RD + KANE BLVD",,40.371838,-80.082474,,,,,,0
6426,6426,"KANE BLVD + OUR LADY OF GRACE CHURCH",,40.373912,-80.084665,,,,,,0
6429,6429,"KANE BLVD + ELM",,40.375956,-80.088619,,,,,,0
6430,6430,"KANE BLVD + HUGHES",,40.377351,-80.090497,,,,,,0
6431,6431,"KANE BLVD + DAVIS",,40.378087,-80.091418,,,,,,0
6432,6432,"MAIN ST + #1737",,40.377026,-80.092876,,,,,,0
6434,6434,"VANADIUM RD + VOLUNTEER FIRE COMPANY",,40.374261,-80.092323,,,,,,0
6435,6435,"VANADIUM RD + VANADIUM WOODS VLG NS",,40.372217,-80.089814,,,,,,0
6436,6436,"VANADIUM RD + ELMBROOK",,40.369455,-80.085846,,,,,,0
6438,6438,"BOWER HILL RD + ROCKHILL",,40.366837,-80.086314,,,,,,0
6442,6442,"BOWER HILL RD + UNION",,40.362213,-80.097662,,,,,,0
6443,6443,"BOWER HILL RD + COOKS SCHOOL",,40.361173,-80.100298,,,,,,0
6446,6446,"BOWER HILL RD + MCLAUGHLIN",,40.358359,-80.105141,,,,,,0
6447,6447,"RAILROAD ST + STATION",,40.358016,-80.110706,,,,,,0
6448,6448,"DEWEY AVE + BANK",,40.356428,-80.110329,,,,,,0
6449,6449,"BANK ST + GREGG",,40.355192,-80.108766,,,,,,0
6450,6450,"BANK ST + CHESTNUT",,40.354400,-80.107590,,,,,,0
6451,6451,"BANK ST + ELM",,40.353711,-80.106586,,,,,,0
6452,6452,"BANK ST + ELIZABETH",,40.353131,-80.105911,,,,,,0
6454,6454,"BANK ST + WINFIELD",,40.350434,-80.104948,,,,,,0
6528,6528,"LESNETT RD + BANK FS",,40.349209,-80.103668,,,,,,0
6571,6571,"WASHINGTON RD + ABBYVILLE",,40.351983,-80.050520,,,,,,0
6573,6573,"GALLERIA STOREFRONT + SOUTHEAST ENTRANCE",,40.356559,-80.052006,,,,,,0
6576,6576,"GILKESON RD + OLD GILKESON",,40.359018,-80.059790,,,,,,0
6577,6577,"GILKESON RD + CEDAR",,40.361648,-80.063758,,,,,,0
6578,6578,"CEDAR BLVD + #1281",,40.363107,-80.063427,,,,,,0
6579,6579,"CEDAR BLVD + BEADLING RD",,40.366372,-80.061188,,,,,,0
6581,6581,"CEDAR BLVD + LINDENDALE",,40.367586,-80.061278,,,,,,0
6582,6582,"CEDAR BLVD + #1163",,40.369265,-80.060649,,,,,,0
6583,6583,"CEDAR BLVD + MAYFAIR",,40.370795,-80.059912,,,,,,0
6585,6585,"CEDAR BLVD + GREENHURST",,40.374953,-80.056779,,,,,,0
6586,6586,"CEDAR BLVD + HOLLYCREST",,40.377721,-80.055309,,,,,,0
6598,6598,"CEDAR BLVD + SALEM",,40.378045,-80.055118,,,,,,0
6599,6599,"CEDAR BLVD + GREENHURST",,40.375260,-80.056707,,,,,,0
6601,6601,"CEDAR BLVD + MAYFAIR",,40.371078,-80.059793,,,,,,0
6602,6602,"CEDAR BLVD + #1154",,40.369488,-80.060616,,,,,,0
6603,6603,"CEDAR BLVD + LINDENDALE",,40.367725,-80.061354,,,,,,0
6604,6604,"CEDAR BLVD + BEADLING",,40.366356,-80.061272,,,,,,0
6608,6608,"GILKESON RD + OLD GILKESON",,40.358795,-80.059631,,,,,,0
6611,6611,"WASHINGTON RD + ABBYVILLE",,40.352315,-80.050609,,,,,,0
6612,6612,"WASHINGTON RD + WASHINGTONIAN APTS",,40.350225,-80.051365,,,,,,0
6647,6647,"BROOKLINE BLVD + PIONEER",,40.396176,-80.023332,,,,,,0
6654,6654,"BROOKLINE BLVD + BIRCHLAND",,40.392337,-80.009447,,,,,,0
6656,6656,"RUTLEDGE ST + REPUBLIC",,40.440299,-80.025391,,,,,,0
6657,6657,"GRANDVIEW AVE + SHALER",,40.440396,-80.023224,,,,,,0
6658,6658,"GRANDVIEW AVE + AUGUSTA",,40.439816,-80.022141,,,,,,0
6659,6659,"GRANDVIEW AVE + PLYMOUTH",,40.438881,-80.020553,,,,,,0
6660,6660,"GRANDVIEW AVE + COHASSETT",,40.437868,-80.018323,,,,,,0
6661,6661,"GRANDVIEW AVE + HALLOCK",,40.437310,-80.017330,,,,,,0
6662,6662,"GRANDVIEW AVE + LABELLE",,40.436425,-80.015718,,,,,,0
6663,6663,"LABELLE ST + PIERMONT",,40.434605,-80.016043,,,,,,0
6664,6664,"LABELLE ST + SYCAMORE",,40.433320,-80.016311,,,,,,0
6665,6665,"LABELLE ST + VIRGINIA",,40.432235,-80.016524,,,,,,0
6673,6673,"VIRGINIA AVE + BERTHA",,40.431422,-80.012165,,,,,,0
6674,6674,"VIRGINIA AVE + KEARSARGE",,40.431144,-80.010727,,,,,,0
6675,6675,"VIRGINIA AVE + MAPLE TERRACE",,40.430652,-80.009673,,,,,,0
6676,6676,"VIRGINIA AVE + SHOP N SAVE",,40.429819,-80.008101,,,,,,0
6677,6677,"SHILOH ST + VIRGINIA FS",,40.429105,-80.007341,,,,,,0
6678,6678,"SOUTHERN AVE + NATCHEZ",,40.428699,-80.008103,,,,,,0
6679,6679,"SOUTHERN AVE + PROSPECT",,40.428167,-80.008668,,,,,,0
6680,6680,"SOUTHERN AVE + WHITWORTH",,40.426024,-80.009288,,,,,,0
6682,6682,"SOUTHERN AVE + DEWITT",,40.424594,-80.010311,,,,,,0
6683,6683,"SOUTHERN AVE + OHARA",,40.423807,-80.011104,,,,,,0
6688,6688,"BOGGS AVE + LELIA",,40.421829,-80.010291,,,,,,0
6690,6690,"BOGGS AVE + SMITH",,40.423994,-80.009245,,,,,,0
6691,6691,"BOGGS AVE + KRAMER",,40.424553,-80.008908,,,,,,0
6692,6692,"BOGGS AVE + #207",,40.426144,-80.007845,,,,,,0
6693,6693,"BOGGS AVE + WYOMING",,40.426808,-80.006381,,,,,,0
6694,6694,"BAILEY AVE + RUTH",,40.426997,-80.005280,,,,,,0
6698,6698,"KATHLEEN ST + JUDICIAL",,40.425624,-79.999828,,,,,,0
6699,6699,"KATHLEEN ST + CRAIGHEAD",,40.425655,-79.998660,,,,,,0
6700,6700,"KATHLEEN ST + BELTZHOOVER",,40.425688,-79.997641,,,,,,0
6701,6701,"BELTZHOOVER AVE + EUREKA",,40.423805,-79.997515,,,,,,0
6702,6702,"BELTZHOOVER AVE + EDGEMONT",,40.422607,-79.997475,,,,,,0
6706,6706,"HABERMAN RAMP + SOUTH HILLS JCT",,40.421537,-80.006101,,,,,,0
6716,6716,"SOUTHERN AVE + SOFFEL",,40.419825,-80.013304,,,,,,0
6717,6717,"SOUTHERN AVE + MINSINGER",,40.418807,-80.013647,,,,,,0
6718,6718,"BOGGS AVE + WARRINGTON",,40.415577,-80.011391,,,,,,0
6720,6720,"BELTZHOOVER AVE + WARRINGTON",,40.421773,-79.997443,,,,,,0
6721,6721,"PALM GARDEN RAMP + WARRINGTON",,40.416928,-80.011307,,,,,,0
6723,6723,"WARRINGTON AVE + DELMONT AVE FS",,40.420787,-80.004713,,,,,,0
6729,6729,"BELTZHOOVER AVE + KATHLEEN",,40.425692,-79.997492,,,,,,0
6730,6730,"KATHLEEN ST + CRAIGHEAD",,40.425720,-79.998641,,,,,,0
6731,6731,"KATHLEEN ST + JUDICIAL",,40.425687,-79.999805,,,,,,0
6732,6732,"KATHLEEN ST + ESTELLA",,40.425654,-80.001036,,,,,,0
6734,6734,"HABERMAN AVE + BAILEY",,40.426867,-80.002561,,,,,,0
6735,6735,"BAILEY AVE + RUTH",,40.427069,-80.005214,,,,,,0
6736,6736,"BOGGS AVE + ST JUSTINS PLAZA",,40.426699,-80.006925,,,,,,0
6737,6737,"BOGGS AVE + GREENBUSH",,40.426387,-80.007529,,,,,,0
6739,6739,"BOGGS AVE + PAUL",,40.422517,-80.010143,,,,,,0
6740,6740,"BOGGS AVE + LELIA",,40.421852,-80.010375,,,,,,0
6741,6741,"BOGGS AVE + SOFFEL",,40.419703,-80.011424,,,,,,0
6742,6742,"SOUTHERN AVE + CARFEL",,40.420177,-80.013101,,,,,,0
6743,6743,"SOUTHERN AVE + LELIA",,40.421778,-80.012557,,,,,,0
6744,6744,"SOUTHERN AVE + SIMMS",,40.422385,-80.012350,,,,,,0
6745,6745,"SOUTHERN AVE + #221",,40.423755,-80.011040,,,,,,0
6746,6746,"SOUTHERN AVE + DEWITT",,40.424547,-80.010256,,,,,,0
6747,6747,"SOUTHERN AVE + SANDWICH",,40.425069,-80.009668,,,,,,0
6748,6748,"SOUTHERN AVE + WHITWORTH",,40.425932,-80.009239,,,,,,0
6749,6749,"SOUTHERN AVE + GRAY",,40.426708,-80.008982,,,,,,0
6750,6750,"SOUTHERN AVE + COWAN",,40.427578,-80.008880,,,,,,0
6751,6751,"SOUTHERN AVE + PROSPECT",,40.428091,-80.008635,,,,,,0
6752,6752,"SOUTHERN AVE + SHILOH",,40.428788,-80.007344,,,,,,0
6754,6754,"VIRGINIA AVE + SHOP N SAVE",,40.429864,-80.007988,,,,,,0
6755,6755,"VIRGINIA AVE + MAPLE TERRACE",,40.430636,-80.009447,,,,,,0
6756,6756,"VIRGINIA AVE + KEARSARGE",,40.431054,-80.010226,,,,,,0
6761,6761,"VIRGINIA AVE + LABELLE",,40.432161,-80.016383,,,,,,0
6770,6770,"GRANDVIEW AVE + PLYMOUTH",,40.438925,-80.020502,,,,,,0
6771,6771,"GRANDVIEW AVE + AUGUSTA",,40.439760,-80.021955,,,,,,0
6772,6772,"GRANDVIEW AVE + SHALER",,40.440406,-80.023119,,,,,,0
6773,6773,"REPUBLIC ST + RUTLEDGE",,40.440375,-80.025209,,,,,,0
6774,6774,"REPUBLIC ST + GREENLEAF",,40.439066,-80.026417,,,,,,0
6775,6775,"GREENLEAF ST + FINGAL",,40.439023,-80.027202,,,,,,0
6776,6776,"BOGGS AVE + WARRINGTON FS",,40.415711,-80.011537,,,,,,0
6777,6777,"SOUTHERN AVE + MINSINGER",,40.418773,-80.013575,,,,,,0
6779,6779,"SHILOH ST + VIRGINIA",,40.429270,-80.007281,,,,,,0
6787,6787,"VIRGINIA AVE + BERTHA ST",,40.431473,-80.012191,,,,,,0
6792,6792,"WEYMAN RD + WHITE HAMPTON",,40.364269,-79.999698,,,,,,0
6793,6793,"WEYMAN RD + FOXWOOD MANOR APTS",,40.367182,-79.999221,,,,,,0
6794,6794,"WEYMAN RD + MCROBERTS",,40.370258,-79.997661,,,,,,0
6815,6815,"BAPTIST RD + MCKEE",,40.352681,-80.009773,,,,,,0
6817,6817,"BAPTIST RD + WINDVALE",,40.353957,-80.005262,,,,,,0
6818,6818,"BAPTIST RD + LACHMAN",,40.355557,-80.002924,,,,,,0
6825,6825,"PROVOST RD + MULBERRY",,40.362988,-79.992186,,,,,,0
6829,6829,"PROVOST RD + WHITEHILL CIR",,40.367050,-79.993496,,,,,,0
6830,6830,"PROVOST RD + FRANK FS",,40.368782,-79.994223,,,,,,0
6832,6831,"PROVOST RD + SHADOW FS",,40.370783,-79.994547,,,,,,0
6836,6836,"PROVOST RD + STEWART",,40.378146,-79.993622,,,,,,0
6838,6838,"SOUTH BUSWAY + OVERBROOK SHELTER",,40.385218,-79.995853,,,,,,0
6839,6839,"SOUTH BUSWAY + INGLEWOOD SHELTER",,40.387610,-79.997069,,,,,,0
6840,6840,"SOUTH BUSWAY + CENTRAL SHELTER",,40.390282,-79.998173,,,,,,0
6841,6841,"SOUTH BUSWAY + SOUTH BANK",,40.392454,-79.998352,,,,,,0
6842,6842,"SOUTH BUSWAY + WHITED ST SHELTER",,40.395584,-79.999582,,,,,,0
6843,6843,"SOUTH BUSWAY + EDGEBROOK SHELTER",,40.402986,-80.002187,,,,,,0
6844,6844,"SOUTH BUSWAY + PIONEER AVE RAMP",,40.411883,-80.008493,,,,,,0
6849,6849,"SOUTH BUSWAY + EDGEBROOK SHELTER",,40.402875,-80.002304,,,,,,0
6850,6850,"SOUTH BUSWAY + WHITED ST SHELTER",,40.395546,-79.999717,,,,,,0
6851,6851,"SOUTH BUSWAY + SOUTH BANK",,40.392555,-79.998433,,,,,,0
6852,6852,"SOUTH BUSWAY + CENTRAL SHELTER",,40.390360,-79.998222,,,,,,0
6853,6853,"SOUTH BUSWAY + INGLEWOOD SHELTER",,40.387674,-79.997204,,,,,,0
6854,6854,"SOUTH BUSWAY + OVERBROOK SHELTER",,40.385268,-79.995902,,,,,,0
6855,6855,"SOUTH BUSWAY + GLENBURY AVE RAMP",,40.382852,-79.996781,,,,,,0
6856,6856,"FAIRHAVEN-PROVOST RD + STEWART",,40.378233,-79.993675,,,,,,0
6858,6858,"FAIRHAVEN RD + WEYMAN",,40.375969,-79.994045,,,,,,0
6862,6862,"PROVOST RD + FRANK",,40.368388,-79.994191,,,,,,0
6863,6863,"PROVOST RD + WHITEHALL",,40.367071,-79.993602,,,,,,0
6865,6865,"PROVOST RD + BRIGHTVIEW",,40.364900,-79.992188,,,,,,0
6866,6866,"PROVOST RD + BARLIND",,40.364019,-79.992224,,,,,,0
6867,6867,"PROVOST RD + LAWNVIEW",,40.363008,-79.992270,,,,,,0
6868,6868,"PROVOST RD + BAPTIST",,40.361173,-79.991077,,,,,,0
6874,6874,"BAPTIST RD + LACHMAN",,40.355708,-80.002843,,,,,,0
6876,6876,"BAPTIST RD + #5344",,40.353504,-80.007225,,,,,,0
6877,6877,"BAPTIST RD + MCKEE FS",,40.352733,-80.009819,,,,,,0
6897,6897,"WEYMAN RD + FOXWOOD MANOR APTS",,40.367445,-79.999202,,,,,,0
6900,6900,"WEYMAN RD + VILLAGE LANE",,40.359857,-80.000839,,,,,,0
6901,6901,"WEYMAN RD + MCROBERTS",,40.370395,-79.997671,,,,,,0
6907,6907,"CURRY RD + OLYMPIA",,40.340186,-79.990873,,,,,,0
6909,6909,"CURRY RD + LAUREL",,40.344281,-79.992085,,,,,,0
6915,6915,"BLOSSOM DR + MCANULTY",,40.343943,-79.996877,,,,,,0
6928,6928,"GARDENVILLE RD + KOEFFLER",,40.347836,-80.007590,,,,,,0
6929,6929,"GARDENVILLE RD + CROSS",,40.349908,-80.008158,,,,,,0
6931,6931,"GARDENVILLE RD + BAPTIST",,40.351982,-80.010758,,,,,,0
6936,6936,"GARDENVILLE RD + BAPTIST RD FS",,40.351506,-80.010472,,,,,,0
6938,6938,"GARDENVILLE RD + KOEFFLER",,40.348023,-80.007710,,,,,,0
6940,6940,"GARDENVILLE RD + CHARLOTTE",,40.345836,-80.007031,,,,,,0
6953,6953,"BLOSSOM DR + LAUREL",,40.343396,-79.994236,,,,,,0
6958,6958,"CURRY RD + OLYMPIC",,40.340421,-79.990978,,,,,,0
6960,6960,"CURRY RD + HORNING",,40.337344,-79.991440,,,,,,0
6971,6971,"CHALFONT ST + DELMONT",,40.416631,-80.003828,,,,,,0
6972,6972,"CHALFONT ST + GEARING",,40.416614,-80.004797,,,,,,0
6983,6983,"GEARING AVE + CLIMAX",,40.419063,-80.005454,,,,,,0
6985,6985,"CLIMAX ST + HABERMAN",,40.419838,-80.002541,,,,,,0
6987,6987,"CLIMAX ST + ESTELLA",,40.419920,-80.000602,,,,,,0
6989,6989,"CLIMAX ST + BELTZHOOVER",,40.419974,-79.997475,,,,,,0
6993,6993,"ARLINGTON AVE + #1047",,40.423457,-79.989092,,,,,,0
6995,6995,"ARLINGTON AVE + NEWTON",,40.426487,-79.992880,,,,,,0
6996,6996,"ARLINGTON AVE + WILLIAM NS",,40.427951,-79.996336,,,,,,0
6998,6998,"ARLINGTON AVE + E CARSON",,40.430674,-80.001154,,,,,,0
6999,6999,"BELTZHOOVER AVE + WARRINGTON AVE FS",,40.421343,-79.997436,,,,,,0
7000,7000,"BELTZHOOVER AVE + CLIMAX",,40.420122,-79.997403,,,,,,0
7001,7001,"CLIMAX ST + CURTIN",,40.420018,-79.998776,,,,,,0
7007,7007,"GEARING AVE + LAFFERTY",,40.418334,-80.005373,,,,,,0
7012,7012,"GEARING AVE + CHALFONT",,40.416665,-80.004943,,,,,,0
7014,7014,"CHALFONT ST + HABERMAN",,40.416594,-80.002420,,,,,,0
7015,7015,"CHALFONT ST + ESTELLA",,40.416631,-80.000500,,,,,,0
7019,7019,"BELTZHOOVER AVE + CHARLES ST",,40.416524,-79.997257,,,,,,0
7022,7022,"CHARLES ST + KNOX",,40.416570,-79.990823,,,,,,0
7027,7027,"ARLINGTON AVE + #916",,40.424948,-79.990318,,,,,,0
7029,7029,"ARLINGTON AVE + WARRINGTON",,40.421958,-79.992244,,,,,,0
7031,7031,"LINDEN AVE + CABLE",,40.399809,-79.835632,,,,,,0
7032,7032,"LINDEN AVE + SR CITIZEN APTS",,40.398736,-79.836660,,,,,,0
7035,7035,"BESSEMER AVE + GRANDVIEW",,40.395015,-79.839172,,,,,,0
7046,7046,"BELL AVE + JONES",,40.403385,-79.862730,,,,,,0
7048,7048,"MIDDLE ST + HAWKINS",,40.405441,-79.861767,,,,,,0
7049,7049,"HAWKINS AVE + ROSE",,40.406859,-79.863618,,,,,,0
7050,7050,"HAWKINS AVE + #509",,40.408253,-79.865457,,,,,,0
7051,7051,"HAWKINS AVE + 4TH",,40.409214,-79.866592,,,,,,0
7052,7052,"HAWKINS AVE + OVERLAND",,40.410873,-79.868582,,,,,,0
7053,7053,"HAWKINS AVE + 2ND",,40.411868,-79.869768,,,,,,0
7055,7055,"WOODSTOCK AVE + #2695",,40.414302,-79.872644,,,,,,0
7056,7056,"WOODSTOCK AVE + WOODSTOCK TERRACE NS",,40.414812,-79.874062,,,,,,0
7060,7060,"WOODSTOCK AVE + MELROSE",,40.417069,-79.880779,,,,,,0
7061,7061,"WOODSTOCK AVE + ORMOND",,40.418099,-79.882518,,,,,,0
7062,7062,"WOODSTOCK AVE + ARDMORE",,40.419070,-79.884156,,,,,,0
7063,7063,"NOBLE AVE + DICKSON ST",,40.420642,-79.885351,,,,,,0
7064,7064,"NOBLE AVE + WASHINGTON ST",,40.421275,-79.885996,,,,,,0
7065,7065,"WAVERLY AVE + BRADDOCK",,40.422202,-79.886139,,,,,,0
7067,7067,"EDGEWOOD AVE + COLUMBIA",,40.424387,-79.885993,,,,,,0
7068,7068,"EDGEWOOD AVE + DELAWARE",,40.425418,-79.885655,,,,,,0
7069,7069,"EDGEWOOD AVE + LACROSSE",,40.426685,-79.885234,,,,,,0
7071,7071,"EDGEWOOD AVE + GORDON",,40.428795,-79.884537,,,,,,0
7072,7072,"EDGEWOOD AVE + EDGEWOOD CT",,40.430273,-79.884342,,,,,,0
7074,7074,"EDGEWOOD AVE + MAPLE",,40.432843,-79.884685,,,,,,0
7075,7075,"COAL ST + HUTCHINSON",,40.435203,-79.883112,,,,,,0
7077,7077,"COAL ST + WOODWORTH",,40.437434,-79.881846,,,,,,0
7078,7078,"COAL ST + REBECCA",,40.438593,-79.881191,,,,,,0
7079,7079,"COAL ST + FRANKLIN",,40.439402,-79.880738,,,,,,0
7084,7084,"ROWLAND CONNECTOR + HIGHRISE",,40.440610,-79.887459,,,,,,0
7085,7085,"KELLY ST + PITT",,40.440542,-79.889366,,,,,,0
7086,7086,"KELLY ST + WEST",,40.441133,-79.891147,,,,,,0
7088,7088,"KELLY ST + PEEBLES",,40.441271,-79.894206,,,,,,0
7089,7089,"PEEBLES ST + FORBES",,40.439923,-79.894710,,,,,,0
7090,7090,"FORBES AVE + CELERON",,40.439804,-79.895569,,,,,,0
7093,7093,"FORBES AVE + DALLAS",,40.438070,-79.912789,,,,,,0
7094,7094,"FORBES AVE + BEECHWOOD",,40.438083,-79.915079,,,,,,0
7095,7095,"FORBES AVE + SHADY",,40.438062,-79.919223,,,,,,0
7096,7096,"FORBES + MURRAY FS",,40.438095,-79.923523,,,,,,0
7097,7097,"FORBES AVE + WIGHTMAN",,40.438102,-79.927520,,,,,,0
7098,7098,"FORBES AVE + MURDOCH",,40.437906,-79.930587,,,,,,0
7100,7100,"FORBES AVE + NORTHUMBERLAND FS",,40.439003,-79.934171,,,,,,0
7101,7101,"FORBES AVE + PLAINFIELD",,40.440376,-79.935417,,,,,,0
7102,7102,"FORBES AVE + MARGARET MORRISON",,40.442606,-79.937477,,,,,,0
7103,7103,"FORBES AVE + BEELER",,40.443833,-79.938618,,,,,,0
7112,7112,"FORBES AVE + JUMONVILLE",,40.437332,-79.977997,,,,,,0
7113,7113,"FORBES AVE + SENECA",,40.437241,-79.976135,,,,,,0
7114,7114,"FORBES AVE + MOULTRIE",,40.437179,-79.974813,,,,,,0
7115,7115,"FORBES AVE + CRAIG ST",,40.444327,-79.948893,,,,,,0
7117,7117,"FORBES AVE + MOREWOOD (CARNEGIE MELLON)",,40.444458,-79.942291,,,,,,0
7119,7119,"FORBES AVE + BEELER",,40.443865,-79.938933,,,,,,0
7121,7121,"FORBES AVE + PLAINFIELD",,40.440575,-79.935719,,,,,,0
7124,7124,"FORBES AVE + MURDOCH",,40.437806,-79.930837,,,,,,0
7125,7125,"FORBES AVE + WIGHTMAN",,40.437986,-79.927988,,,,,,0
7126,7126,"FORBES AVE + MURRAY AVE",,40.438010,-79.923198,,,,,,0
7127,7127,"FORBES AVE + SHADY AVE",,40.438000,-79.919581,,,,,,0
7128,7128,"FORBES AVE + DENNISTON",,40.438005,-79.918058,,,,,,0
7129,7129,"FORBES AVE + BEECHWOOD",,40.438003,-79.916373,,,,,,0
7130,7130,"FORBES AVE + DALLAS",,40.437994,-79.913232,,,,,,0
7133,7133,"FORBES AVE + EAST END AVE",,40.439716,-79.896660,,,,,,0
7134,7134,"FORBES AVE + PEEBLES",,40.439354,-79.895012,,,,,,0
7135,7135,"PEEBLES ST + FORBES",,40.439758,-79.894652,,,,,,0
7136,7136,"PEEBLES ST + KELLY",,40.441162,-79.894316,,,,,,0
7137,7137,"KELLY ST + TRENTON",,40.441217,-79.892502,,,,,,0
7138,7138,"KELLY ST + WEST",,40.441169,-79.891419,,,,,,0
7139,7139,"KELLY ST + PITT",,40.440568,-79.889636,,,,,,0
7140,7140,"KELLY ST + HAY",,40.440118,-79.888290,,,,,,0
7141,7141,"ROWLAND CONNECTOR + PENNWOOD",,40.440555,-79.887099,,,,,,0
7146,7146,"REBECCA ST + SWISSVALE FS",,40.438012,-79.879136,,,,,,0
7147,7147,"SWISSVALE AVE + #441(MERCY GRANDVIEW MANOR)",,40.436793,-79.880608,,,,,,0
7150,19408,"EDGEWOOD AVE + ELM ST",,40.431873,-79.884601,,,,,,0
7152,7152,"EDGEWOOD AVE + LACROSSE",,40.426817,-79.885278,,,,,,0
7153,7153,"EDGEWOOD AVE + DELAWARE",,40.425625,-79.885681,,,,,,0
7154,7154,"EDGEWOOD AVE + COLUMBIA",,40.424655,-79.885998,,,,,,0
7156,7156,"WAVERLY AVE + BRADDOCK FS",,40.422234,-79.886253,,,,,,0
7157,7157,"NOBLE AVE + WASHINGTON ST",,40.421473,-79.886291,,,,,,0
7159,7159,"WOODSTOCK AVE + ARDMORE",,40.419126,-79.884408,,,,,,0
7160,7160,"WOODSTOCK AVE + ORMOND",,40.418155,-79.882763,,,,,,0
7161,7161,"WOODSTOCK AVE + MELROSE",,40.417158,-79.881084,,,,,,0
7163,7163,"WOODSTOCK AVE + BRADDOCK",,40.415389,-79.876907,,,,,,0
7165,7165,"WOODSTOCK AVE + WOODSTOCK TERRACE",,40.414847,-79.874385,,,,,,0
7167,7167,"WOODSTOCK AVE + WILKINS",,40.413345,-79.871225,,,,,,0
7168,7168,"HAWKINS AVE + 2ND",,40.411910,-79.869939,,,,,,0
7169,7169,"HAWKINS AVE + OVERLAND",,40.411050,-79.868915,,,,,,0
7170,7170,"HAWKINS AVE + 4TH",,40.409409,-79.866944,,,,,,0
7173,7173,"HAWKINS AVE + MIDDLE ST",,40.405536,-79.861839,,,,,,0
7177,21683,"BELL AVE + VERONA",,40.402073,-79.861069,,,,,,0
7186,7186,"CENTER ST + GRANDVIEW",,40.395708,-79.839277,,,,,,0
7188,7188,"LINDEN AVE + BESSEMER FS",,40.395126,-79.838135,,,,,,0
7190,7190,"LINDEN AVE + SR CITIZEN APTS",,40.398744,-79.836523,,,,,,0
7210,7210,"HAWKINS AVE + RANKIN BLVD",,40.412138,-79.881089,,,,,,0
7211,7211,"RANKIN BLVD + BLDG #5",,40.413062,-79.883043,,,,,,0
7212,7212,"HARRIETT ST + BLDG #2",,40.413906,-79.883657,,,,,,0
7213,7213,"HARRIETT ST + 5TH",,40.414645,-79.883319,,,,,,0
7215,7215,"MILLER ST + GAS ST",,40.416033,-79.885251,,,,,,0
7217,7217,"MONONGAHELA AVE + DUQUESNE",,40.418161,-79.888042,,,,,,0
7218,7218,"MONONGAHELA AVE + WASHINGTON",,40.419829,-79.889063,,,,,,0
7219,7219,"MONONGAHELA AVE + IRVINE",,40.420721,-79.889612,,,,,,0
7220,7220,"MONONGAHELA AVE + CHURCH",,40.421751,-79.890252,,,,,,0
7222,7222,"MONONGAHELA AVE + SCHOYER",,40.423480,-79.891312,,,,,,0
7223,7223,"MONONGAHELA AVE + WHIPPLE (#1641)",,40.425607,-79.891606,,,,,,0
7225,7225,"BRADDOCK AVE + GREENDALE FS",,40.428848,-79.891720,,,,,,0
7226,7226,"BRADDOCK AVE + CHARLESTON",,40.430650,-79.892494,,,,,,0
7227,7227,"BRADDOCK AVE + SANDERS",,40.431687,-79.893161,,,,,,0
7228,7228,"BRADDOCK AVE + HUTCHINSON",,40.432681,-79.893884,,,,,,0
7229,7229,"BRADDOCK AVE + OVERTON",,40.434136,-79.894935,,,,,,0
7230,7230,"BRADDOCK AVE + HENRIETTA",,40.435761,-79.895891,,,,,,0
7231,7231,"BRADDOCK AVE + BIDDLE",,40.436770,-79.896331,,,,,,0
7233,7233,"FORBES AVE + BRADDOCK FS",,40.439692,-79.898376,,,,,,0
7234,7234,"FORBES AVE + BRADDOCK",,40.439580,-79.897924,,,,,,0
7235,7235,"BRADDOCK AVE + GUTHRIE",,40.438383,-79.897147,,,,,,0
7236,7236,"BRADDOCK AVE + BIDDLE",,40.437008,-79.896544,,,,,,0
7237,7237,"BRADDOCK AVE + HENRIETTA",,40.435986,-79.896104,,,,,,0
7238,7238,"BRADDOCK AVE + OVERTON",,40.434301,-79.895169,,,,,,0
7239,7239,"BRADDOCK AVE + HUTCHINSON",,40.433041,-79.894287,,,,,,0
7240,7240,"BRADDOCK AVE + SANDERS",,40.431927,-79.893451,,,,,,0
7241,7241,"BRADDOCK AVE + CHARLESTON",,40.430695,-79.892618,,,,,,0
7242,7242,"BRADDOCK AVE + GREENDALE",,40.428734,-79.891808,,,,,,0
7245,7245,"MONONGAHELA AVE + MCCLURE",,40.423057,-79.891175,,,,,,0
7246,7246,"MONONGAHELA AVE + CHURCH",,40.421986,-79.890516,,,,,,0
7247,7247,"MONONGAHELA AVE + SCHLEY",,40.420772,-79.889764,,,,,,0
7248,7248,"MONONGAHELA AVE + WASHINGTON",,40.420107,-79.889346,,,,,,0
7249,7249,"MONONGAHELA AVE + DUQUESNE",,40.418393,-79.888292,,,,,,0
7250,7250,"MONONGAHELA AVE + #2130",,40.417416,-79.887697,,,,,,0
7252,7252,"MILLER ST + GAS ST",,40.416013,-79.885384,,,,,,0
7253,7253,"MILLER ST + HARRIETT",,40.415509,-79.883181,,,,,,0
7254,7254,"HARRIETT ST + 5TH",,40.414827,-79.883297,,,,,,0
7255,7255,"HARRIETT ST + BLDG #2",,40.413944,-79.883782,,,,,,0
7256,7256,"RANKIN BLVD + BLDG #5",,40.413005,-79.883151,,,,,,0
7257,7257,"RANKIN BLVD + HAWKINS",,40.412011,-79.881276,,,,,,0
7258,7258,"RANKIN BLVD + #211",,40.411420,-79.880137,,,,,,0
7259,7259,"RANKIN BLVD + KENMAWR",,40.410202,-79.877843,,,,,,0
7272,7272,"JONES AVE + BELL AVE",,40.403340,-79.862896,,,,,,0
7273,7273,"COAL ST + SOUTH",,40.440222,-79.880264,,,,,,0
7276,7276,"SOUTH AVE + MULBERRY",,40.441620,-79.884122,,,,,,0
7279,7279,"LIBERTY AVE + 10TH ST NS",,40.443810,-79.994892,,,,,,0
7280,7280,"SMITHFIELD ST + SIXTH AVE",,40.441684,-79.997611,,,,,,0
7282,7282,"SOUTH AVE + WOOD",,40.442123,-79.885895,,,,,,0
7283,7283,"SOUTH AVE + MULBERRY",,40.441622,-79.884348,,,,,,0
7284,7284,"SOUTH AVE + CENTER",,40.441212,-79.883133,,,,,,0
7285,7285,"SOUTH AVE + MILL",,40.440750,-79.881726,,,,,,0
7286,7286,"SOUTH AVE + COAL",,40.440300,-79.880417,,,,,,0
7287,7287,"SOUTH AVE + SWISSVALE",,40.439850,-79.879028,,,,,,0
7288,7288,"SWISSVALE AVE + FRANKLIN",,40.439083,-79.879097,,,,,,0
7289,7289,"SWISSVALE AVE + REBECCA",,40.438319,-79.879570,,,,,,0
7291,20450,"6TH ST + MARGARETTA ST",,40.404333,-79.866861,,,,,,0
7292,7292,"6TH ST + BRADDOCK AVE",,40.403337,-79.868556,,,,,,0
7293,7293,"BRADDOCK AVE + 7TH",,40.402484,-79.867557,,,,,,0
7300,7300,"WHIPPLE ST + NEVADA",,40.423001,-79.899143,,,,,,0
7302,7302,"WHIPPLE ST + AURELIUS",,40.424602,-79.896312,,,,,,0
7303,7303,"AURELIUS ST + HARRISON",,40.422964,-79.895854,,,,,,0
7304,7304,"SCHOYER AVE + TONETTE",,40.422535,-79.894821,,,,,,0
7305,7305,"SCHOYER AVE + MONROE",,40.423157,-79.892755,,,,,,0
7306,7306,"SCHOYER AVE + MONONGAHELA",,40.423550,-79.891594,,,,,,0
7312,7312,"SCHOYER AVE + TONETTE",,40.422629,-79.894731,,,,,,0
7314,7314,"AURELIUS AVE + MCCLURE",,40.421196,-79.895210,,,,,,0
7315,7315,"MCCLURE ST + NEVADA",,40.420573,-79.896484,,,,,,0
7320,7320,"HUTCHINSON AVE + EAST END",,40.433182,-79.893181,,,,,,0
7321,7321,"HUTCHINSON AVE + SAVANNAH",,40.433611,-79.892198,,,,,,0
7322,7322,"SAVANNAH AVE + OVERTON",,40.434972,-79.892986,,,,,,0
13509,13509,"WM PENN HWY + SUNRISE HOTEL",,40.438953,-79.764900,,,,,,0
13512,13512,"WM PENN HWY + DUFFS",,40.438225,-79.774095,,,,,,0
13513,13513,"WM PENN HWY + RED LOBSTER",,40.438007,-79.775597,,,,,,0
13515,13515,"WM PENN HWY + COUNTRY SQUARE SC",,40.436615,-79.782997,,,,,,0
13516,13516,"MALL BLVD + MALL BLVD PLAZA",,40.434898,-79.786522,,,,,,0
13517,13517,"MALL BLVD + STEPS",,40.433785,-79.788780,,,,,,0
13518,13518,"WM PENN HWY + RODI FS",,40.438462,-79.830801,,,,,,0
13521,13521,"MCCRADY RD AT BEULAH CHURCH PARK AND RIDE",,40.446281,-79.846642,,,,,,0
13523,13523,"BEATTY RD + BRUNNER DR",,40.451878,-79.755051,,,,,,0
13526,13526,"BEATTY RD + HAYMAKER RD",,40.448515,-79.761033,,,,,,0
13565,13565,"HOLIDAY PARK RD + HWY RT 286",,40.475287,-79.707584,,,,,,0
13567,13567,"HWY RT 286 + DUANE",,40.468421,-79.705984,,,,,,0
13568,13568,"HWY RT 286 AT HOLIDAY PARK VFD PARK AND RIDE",,40.466522,-79.705536,,,,,,0
13569,13569,"HWY RT 286 + PRESQUE ISLE",,40.463731,-79.705538,,,,,,0
13570,13570,"HWY RT 286 + KANE (YMCA)",,40.458055,-79.708362,,,,,,0
13571,13571,"HWY RT 286 + PINE VALLEY",,40.455090,-79.710802,,,,,,0
13572,13572,"HWY RT 286 AT NEW TEXAS RD - PLUM PARK AND RIDE",,40.450972,-79.713580,,,,,,0
13574,13574,"HWY RT 286 + WESTINGHOUSE #1",,40.442413,-79.713402,,,,,,0
13576,13576,"HWY RT 286 + PROFESSIONAL CENTER",,40.435577,-79.713989,,,,,,0
13577,13577,"HWY RT 286 + DAY CHEVROLET",,40.431539,-79.717118,,,,,,0
13585,13585,"WM PENN HWY + NOTTINGHAM",,40.438214,-79.830701,,,,,,0
13588,13588,"RODI RD + PENN CENTER BLVD",,40.430393,-79.816969,,,,,,0
13590,13590,"PENN CENTER BLVD + PENN TOWERS (UPPER)",,40.424239,-79.812522,,,,,,0
13591,13591,"PENN CENTER BLVD + BLDG #7",,40.426345,-79.811304,,,,,,0
13592,13592,"PENN CENTER BLVD + BLDG #3",,40.428246,-79.811840,,,,,,0
13593,13593,"PENN CENTER BLVD + WM PENN",,40.429811,-79.811999,,,,,,0
13594,13594,"MALL BLVD + TGI FRIDAY",,40.433837,-79.788410,,,,,,0
13595,13595,"MALL BLVD + ALTMEYERS DRIVEWAY",,40.434952,-79.786024,,,,,,0
13596,13596,"MALL BLVD + WM PENN",,40.435894,-79.785446,,,,,,0
13599,13599,"WM PENN HWY + RED LOBSTER",,40.437892,-79.775456,,,,,,0
13600,13600,"WM PENN HWY + DENNYS",,40.438290,-79.772423,,,,,,0
13601,13601,"WM PENN HWY + STROSCHEIN",,40.438534,-79.769760,,,,,,0
13603,13603,"HAYMAKER RD + CLOVER DR",,40.442193,-79.760116,,,,,,0
13604,13604,"OLD WM PENN HWY + GOOD SHEPHERD",,40.443722,-79.757749,,,,,,0
13605,13605,"OLD WM PENN HWY + WILLIAMSBURG DR",,40.441411,-79.753778,,,,,,0
13606,13606,"OLD WM PENN HWY + SCOTT DR",,40.441384,-79.751748,,,,,,0
13607,13607,"OLD WM PENN HWY + BAYHILL DR",,40.441713,-79.749619,,,,,,0
13609,13609,"OLD WM PENN HWY + GLENWOOD DR",,40.440660,-79.745259,,,,,,0
13610,13610,"BEATTY RD + COLLEGE PARK",,40.441634,-79.742771,,,,,,0
13611,13611,"BEATTY RD + BEATTY POINTE VILLAGE",,40.445774,-79.747440,,,,,,0
13620,13620,"BEATTY RD + BRUNNER DR",,40.451725,-79.755341,,,,,,0
13626,13626,"WM PENN HWY + JADEN II",,40.431919,-79.730517,,,,,,0
13629,13629,"HWY RT 286 + #1610",,40.435106,-79.714115,,,,,,0
13631,13631,"HWY RT 286 + WESTINGHOUSE #2",,40.442050,-79.713245,,,,,,0
13633,13633,"HWY RT 286 OPP NEW TEXAS RD - PLUM PARK AND RIDE",,40.450647,-79.713551,,,,,,0
13634,13634,"HWY RT 286 + PINE VALLEY",,40.454971,-79.710756,,,,,,0
13635,13635,"HWY RT 286 + KANE (YMCA)",,40.457768,-79.708463,,,,,,0
13636,13636,"HWY RT 286 + SANDUNE",,40.463377,-79.705450,,,,,,0
13637,13637,"OLD ABERS CREEK RD + HOLIDAY PARK VFD",,40.466695,-79.705973,,,,,,0
13638,13638,"FIESTA DR + SUN VALLEY",,40.471518,-79.707606,,,,,,0
13640,13640,"FIESTA DR + RIVIERA",,40.474728,-79.709107,,,,,,0
13706,13706,"WM PENN HWY + PENN CENTER",,40.430082,-79.811688,,,,,,0
13707,13707,"WM PENN HWY + HAWTHORNE",,40.432880,-79.819061,,,,,,0
13789,13789,"FRANKSTOWN RD + CHAMPA ST",,40.462013,-79.859627,,,,,,0
13791,13791,"FRANKSTOWN RD + HOWARD ST",,40.462757,-79.856728,,,,,,0
13792,13792,"FRANKSTOWN RD + BON AIR RD",,40.463679,-79.855552,,,,,,0
13793,13793,"FRANKSTOWN RD + ORIN ST",,40.464847,-79.853228,,,,,,0
13794,13794,"FRANKSTOWN RD + CURTIS ST",,40.462707,-79.850078,,,,,,0
13795,13795,"FRANKSTOWN RD + CRAB HOLLOW DR",,40.461843,-79.848849,,,,,,0
13796,13796,"FRANKSTOWN RD + DUFFIELD AVE",,40.461323,-79.847962,,,,,,0
13797,13797,"FRANKSTOWN RD AT HEBRON CHURCH",,40.460423,-79.844364,,,,,,0
13839,13839,"OLD WM PENN HWY + #4533",,40.442898,-79.756310,,,,,,0
13840,13840,"OLD WM PENN HWY + BEATTY",,40.440259,-79.742323,,,,,,0
13931,13931,"HWY RT 286 + DAY CHEVROLET",,40.431525,-79.716964,,,,,,0
14023,14023,"GREENSBURG PIKE + UNION",,40.381135,-79.817004,,,,,,0
14024,14024,"GREENSBURG PIKE + HILDA",,40.380808,-79.814711,,,,,,0
14108,14108,"STATION ST. + HERMAN",,40.393280,-79.808411,,,,,,0
14164,14164,"FRANKSTOWN RD + 1ST REFORMED CHURCH",,40.481163,-79.822136,,,,,,0
14165,14165,"FRANKSTOWN RD + CRESTVIEW RD",,40.479902,-79.822576,,,,,,0
14179,14179,"UNIVERSAL RD + JOSLYN",,40.463120,-79.802682,,,,,,0
14186,14186,"UNIVERSAL RD + JOSLYN",,40.463295,-79.802536,,,,,,0
14187,14187,"UNIVERSAL RD + STOTLER",,40.460789,-79.804611,,,,,,0
14188,14188,"UNIVERSAL RD #1048",,40.460368,-79.807214,,,,,,0
14190,14190,"UNIVERSAL RD + FREY",,40.460517,-79.811247,,,,,,0
14191,14191,"UNIVERSAL RD + COLLINS",,40.461216,-79.812707,,,,,,0
14192,14192,"UNIVERSAL RD + GREENWAY",,40.462283,-79.814749,,,,,,0
14193,14193,"UNIVERSAL RD + POPLAR RIDGE RD FS",,40.464636,-79.820254,,,,,,0
14194,14194,"UNIVERSAL RD + VOLUNTEER FIRE CO",,40.466121,-79.824354,,,,,,0
14221,14221,"UNIVERSAL RD + #150",,40.466181,-79.822564,,,,,,0
14226,14226,"UNIVERSAL RD + FREY",,40.460536,-79.811485,,,,,,0
14227,14227,"UNIVERSAL RD + #1048",,40.460306,-79.806934,,,,,,0
14228,14228,"UNIVERSAL RD + STOTLER",,40.460592,-79.804698,,,,,,0
14242,14242,"FRANKSTOWN RD + 1ST REFORMED CHURCH",,40.481488,-79.821606,,,,,,0
14248,14248,"VERONA RD + THIRD ST",,40.477950,-79.845127,,,,,,0
14305,14305,"HULTON RD + THE FAIRWAYS",,40.525983,-79.821770,,,,,,0
14308,14308,"HULTON RD + 10TH",,40.523990,-79.831644,,,,,,0
14309,14309,"HULTON RD + 9TH",,40.523839,-79.832854,,,,,,0
14311,14311,"HULTON RD + 5TH",,40.525024,-79.838369,,,,,,0
14319,14319,"ALLEGHENY RIVER BLVD + CENTER",,40.506754,-79.842946,,,,,,0
14320,14320,"ALLEGHENY RIVER BLVD + SOUTH",,40.504978,-79.843143,,,,,,0
14321,14321,"WILDWOOD AVE + #444",,40.503695,-79.841251,,,,,,0
14322,14322,"WILDWOOD AVE + FOOD PARK",,40.503574,-79.840097,,,,,,0
14323,14323,"VERONA RD + 2ND ST",,40.501560,-79.837734,,,,,,0
14324,14324,"VERONA RD + ELLIOTT",,40.499010,-79.837516,,,,,,0
14325,14325,"VERONA RD + RIVERVIEW",,40.497303,-79.836883,,,,,,0
14326,14326,"VERONA RD + RAITHEL",,40.496224,-79.836830,,,,,,0
14327,14327,"VERONA RD + RIVERSIDE",,40.493561,-79.836495,,,,,,0
14328,14328,"VERONA RD + GALETON",,40.490444,-79.836174,,,,,,0
14330,14330,"VERONA RD + POKETA",,40.486653,-79.837343,,,,,,0
14331,14331,"VERONA RD + ARTHUR",,40.484963,-79.837450,,,,,,0
14332,14332,"VERONA RD + HOMESTEAD",,40.481787,-79.838084,,,,,,0
14333,14333,"VERONA RD + MAPLE",,40.479959,-79.839313,,,,,,0
14334,14334,"VERONA RD + RANDOLPH",,40.478855,-79.840787,,,,,,0
14340,14340,"VERONA RD + GRAHAM BLVD EXT",,40.463290,-79.865765,,,,,,0
14355,14355,"HAMILTON AVE + JULIUS",,40.458267,-79.911563,,,,,,0
14357,14357,"HAMILTON AVE + ENTERPRISE",,40.459349,-79.914352,,,,,,0
14358,14358,"HAMILTON AVE + EAST LIBERTY BLVD",,40.459819,-79.915520,,,,,,0
14363,14363,"BAUM BLVD + GRAHAM ST",,40.457481,-79.936798,,,,,,0
14364,14364,"BAUM BLVD + LIBERTY AVE",,40.456721,-79.939483,,,,,,0
14365,14365,"BAUM BLVD + CYPRESS ST FS",,40.455891,-79.942307,,,,,,0
14366,14366,"BAUM BLVD + MOREWOOD AVE",,40.455071,-79.944977,,,,,,0
14367,14367,"BAUM BLVD + MILLVALE AVE",,40.454454,-79.947569,,,,,,0
14368,14368,"BAUM BLVD + ENFIELD ST",,40.454144,-79.949348,,,,,,0
14369,14369,"BAUM BLVD + MELWOOD AVE",,40.454077,-79.951806,,,,,,0
14370,14370,"CRAIG ST + BAUM BLVD FS",,40.454418,-79.953522,,,,,,0
14371,14371,"HULTON RD + RIVERVIEW HS",,40.526325,-79.844132,,,,,,0
14382,14382,"FRANKSTOWN RD + SPRING GROVE RD",,40.474430,-79.822022,,,,,,0
14384,14384,"FRANKSTOWN RD + PARKRIDGE DR FS",,40.470882,-79.821251,,,,,,0
14385,14385,"FRANKSTOWN RD + HARVARD DR",,40.469486,-79.823647,,,,,,0
14386,14386,"FRANKSTOWN RD + LIME HOLLOW RD",,40.468456,-79.824669,,,,,,0
14387,14387,"FRANKSTOWN RD + RODI RD",,40.466393,-79.826126,,,,,,0
14388,14388,"FRANKSTOWN RD + DUFF RD",,40.465041,-79.828292,,,,,,0
14390,14390,"FRANKSTOWN RD + BANYON DR",,40.466568,-79.832756,,,,,,0
14391,14391,"FRANKSTOWN RD + HIGHPOINT DR FS",,40.467469,-79.834708,,,,,,0
14393,14393,"FRANKSTOWN RD + ERHARDT DR",,40.465916,-79.838623,,,,,,0
14394,14394,"FRANKSTOWN RD + BARTHOLOMEW CHURCH DR",,40.464932,-79.839371,,,,,,0
14396,14396,"FRANKSTOWN RD + COAL HOLLOW RD",,40.460444,-79.842425,,,,,,0
14397,14397,"FRANKSTOWN RD + #10485",,40.460592,-79.844448,,,,,,0
14399,14399,"FRANKSTOWN RD + CRAB HOLLOW DR",,40.461884,-79.848788,,,,,,0
14400,14400,"FRANKSTOWN RD + CURTIS ST",,40.462830,-79.850126,,,,,,0
14401,14401,"FRANKSTOWN RD + FRANKSTOWN GARDENS",,40.463667,-79.851234,,,,,,0
14402,14402,"FRANKSTOWN RD + MCCLUTCHEON LN",,40.464876,-79.853070,,,,,,0
14404,14404,"FRANKSTOWN RD + HOWARD ST",,40.463037,-79.856477,,,,,,0
14406,14406,"FRANKSTOWN RD + CHAMPA ST",,40.462151,-79.859425,,,,,,0
14408,14408,"FRANKSTOWN RD + GRAHAM BLVD",,40.461430,-79.862717,,,,,,0
14415,14415,"BAUM BLVD + MILLVALE AVE",,40.454308,-79.947853,,,,,,0
14416,14416,"BAUM BLVD + MOREWOOD AVE",,40.454888,-79.945335,,,,,,0
14417,14417,"BAUM BLVD + CYPRESS ST",,40.455864,-79.942077,,,,,,0
14421,14421,"HAMILTON AVE + ENTERPRISE",,40.459316,-79.914620,,,,,,0
14422,14422,"HAMILTON AVE + JULIUS",,40.458202,-79.911682,,,,,,0
14435,14435,"VERONA RD + GIANT EAGLE",,40.462195,-79.865903,,,,,,0
14436,14436,"VERONA RD + GRAHAM BLVD EXT",,40.463244,-79.865660,,,,,,0
14442,14442,"VERONA RD + RANDOLPH",,40.478847,-79.840684,,,,,,0
14443,14443,"VERONA RD + MAPLE",,40.479761,-79.839445,,,,,,0
14444,14444,"VERONA RD + ROSEDALE",,40.481711,-79.838047,,,,,,0
14445,14445,"VERONA RD + BRINLEY",,40.484391,-79.837354,,,,,,0
14446,14446,"VERONA RD + POKETA",,40.486442,-79.837308,,,,,,0
14448,14448,"VERONA RD + GALETON",,40.490376,-79.836093,,,,,,0
14449,14449,"VERONA RD + QUINCY",,40.493472,-79.836379,,,,,,0
14450,14450,"VERONA RD + RAITHEL FS",,40.496046,-79.836745,,,,,,0
14451,14451,"VERONA RD + RIVERVIEW",,40.497389,-79.836822,,,,,,0
14452,14452,"VERONA RD + ELLIOTT",,40.498911,-79.837415,,,,,,0
14453,14453,"VERONA RD + 2ND",,40.501444,-79.837624,,,,,,0
14456,14456,"ALLEGHENY RIVER BLVD + SOUTH",,40.504742,-79.843076,,,,,,0
14466,14466,"HULTON RD + 5TH ST",,40.525004,-79.838598,,,,,,0
14468,14468,"HULTON RD + 9TH",,40.523697,-79.833183,,,,,,0
14469,14469,"HULTON RD + 10TH",,40.523865,-79.831764,,,,,,0
14471,14471,"HULTON RD + 12TH",,40.524319,-79.828995,,,,,,0
14473,14473,"HULTON RD + THE FAIRWAYS",,40.525948,-79.821671,,,,,,0
14474,14474,"HULTON RD + COXCOMB",,40.527034,-79.816721,,,,,,0
14508,14508,"HULTON RD + 3RD",,40.526027,-79.842532,,,,,,0
14510,14510,"FRANKSTOWN RD + ROBINSON BLVD FS",,40.461225,-79.865464,,,,,,0
14511,14511,"FRANKSTOWN RD + GRAHAM BLVD",,40.461374,-79.863266,,,,,,0
14512,14512,"FRANKSTOWN RD + BEULAH RD FS",,40.460712,-79.841860,,,,,,0
14513,14513,"FRANKSTOWN RD + RITZLAND RD",,40.462399,-79.840782,,,,,,0
14514,14514,"FRANKSTOWN RD + VANCE ST",,40.463322,-79.839954,,,,,,0
14516,14516,"FRANKSTOWN RD + ERHARDT DR",,40.465717,-79.838753,,,,,,0
14517,14517,"FRANKSTOWN RD + HIGHLAND DR",,40.467125,-79.836296,,,,,,0
14520,14520,"FRANKSTOWN RD + LONG RD",,40.465760,-79.832330,,,,,,0
14522,14522,"FRANKSTOWN RD + RODI RD FS",,40.466628,-79.825881,,,,,,0
14523,14523,"FRANKSTOWN RD + LIME HOLLOW RD",,40.468272,-79.824698,,,,,,0
14524,14524,"FRANKSTOWN RD + HARVARD DR FS",,40.469431,-79.823570,,,,,,0
14528,14528,"FRANKSTOWN RD + SHENANDOAH DR",,40.474221,-79.821772,,,,,,0
14568,14568,"WASHINGTON BLVD + HIGHLAND",,40.474341,-79.908378,,,,,,0
14570,14570,"WASHINGTON BLVD + LIBERTY WELDING",,40.466916,-79.908610,,,,,,0
14571,14571,"WASHINGTON BLVD + SHETLAND",,40.460079,-79.907074,,,,,,0
14572,14572,"WASHINGTON BLVD + FRANKSTOWN",,40.458849,-79.907997,,,,,,0
14573,14573,"FIFTH AVE + HAMILTON",,40.457381,-79.909031,,,,,,0
14577,14577,"WASHINGTON BLVD + HIGHLAND",,40.474002,-79.908205,,,,,,0
14601,14601,"CONNECTING RD + HAYMAKER RD",,40.449637,-79.761730,,,,,,0
14602,14602,"CENTER RD + HELMAR DR FS",,40.452351,-79.761223,,,,,,0
14605,14605,"CENTER RD + LORRAINE DR FS",,40.454655,-79.760244,,,,,,0
14606,14606,"CENTER RD + COTTAGE LN",,40.456166,-79.759822,,,,,,0
14608,14608,"CENTER RD + GATEWAY DR",,40.458458,-79.757721,,,,,,0
14610,14610,"CENTER RD + FOUR SEASONS APTS",,40.460966,-79.759405,,,,,,0
14612,14612,"CENTER RD + WIMBLEDON DR",,40.467089,-79.757021,,,,,,0
14614,14614,"MONROEVILLE-TRESTLE RD + FOUR SEASONS",,40.470100,-79.754807,,,,,,0
14620,14620,"UNITY TRESTLE RD + #1049",,40.478284,-79.761287,,,,,,0
14623,14623,"UNITY TRESTLE RD + COLLEGE AVE",,40.484570,-79.767443,,,,,,0
14624,14624,"UNITY TRESTLE RD + JACKSON RD",,40.485456,-79.769142,,,,,,0
14630,14630,"UNITY TRESTLE RD + UNIVERSAL RD",,40.490419,-79.783024,,,,,,0
14634,14634,"LEECHBURG RD + BARCKHOFF ST FS",,40.493752,-79.789271,,,,,,0
14636,14636,"LEECHBURG RD + SUTTON DR",,40.491851,-79.792853,,,,,,0
14641,14641,"LEECHBURG RD + #6503",,40.487170,-79.803227,,,,,,0
14642,14642,"LEECHBURG RD + COURTNEY DR",,40.486735,-79.804821,,,,,,0
14643,14643,"LEECHBURG RD + CLOVERLEAF RD",,40.486989,-79.808504,,,,,,0
14645,14645,"LEECHBURG RD + RICHEY DR",,40.486292,-79.814618,,,,,,0
14646,14646,"LEECHBURG RD + SALTSBURG RD",,40.485149,-79.817707,,,,,,0
14647,14647,"SALTSBURG RD + HULTON RD NS",,40.484593,-79.818763,,,,,,0
14671,14671,"SALTSBURG RD + STOTLER RD",,40.482986,-79.809785,,,,,,0
14674,14674,"SALTSBURG RD + ALCOMA GOLF CLUB",,40.481016,-79.802589,,,,,,0
14675,14675,"SALTSBURG RD + HERSHEY RD",,40.477612,-79.799696,,,,,,0
14682,14682,"MAIN ST + THOMPSON",,40.468484,-79.791108,,,,,,0
14683,14683,"MAIN ST + #2344",,40.469586,-79.790071,,,,,,0
14685,14685,"MAIN ST + REITER",,40.471881,-79.787714,,,,,,0
14686,14686,"MAIN ST + #2636",,40.473420,-79.787598,,,,,,0
14687,14687,"UNIVERSAL RD + AUSTIN",,40.475244,-79.786634,,,,,,0
14688,14688,"UNIVERSAL RD + SALTBURG",,40.477453,-79.785231,,,,,,0
14689,14689,"SALTSBURG RD + FORD AVE",,40.476689,-79.782775,,,,,,0
14690,14690,"SALTSBURG RD + REITER RD",,40.476371,-79.780830,,,,,,0
14691,14691,"SALTSBURG RD + CRESTVIEW DR",,40.476033,-79.778596,,,,,,0
14693,14693,"SALTSBURG RD + MILLERS LN",,40.475159,-79.772827,,,,,,0
14697,14697,"SALTSBURG RD + MONROEVILLE TRESTLE",,40.476504,-79.760247,,,,,,0
14706,14706,"CENTER RD + FOUR SEASONS APTS",,40.461109,-79.759603,,,,,,0
14708,14708,"CENTER RD + GATEWAY DR",,40.458534,-79.757835,,,,,,0
14710,14710,"CENTER RD + COTTAGE LN",,40.456222,-79.759882,,,,,,0
14711,14711,"CENTER RD + FRANKLIN HEIGHTS DR FS",,40.454509,-79.760340,,,,,,0
14714,14714,"CENTER RD + HELMAR DR FS",,40.452396,-79.761299,,,,,,0
14716,14716,"HAYMAKER RD + BEATTY RD",,40.448775,-79.760531,,,,,,0
14743,14743,"SALTSBURG RD + REGENCY DR",,40.475269,-79.770813,,,,,,0
14745,14745,"SALTSBURG RD + CHAPEL HILL DENTAL (#7641)",,40.475128,-79.775271,,,,,,0
14746,14746,"SALTSBURG RD + CRESTVIEW DR",,40.475920,-79.778182,,,,,,0
14747,14747,"SALTSBURG RD + REITER RD",,40.476465,-79.780434,,,,,,0
14748,14748,"SALTSBURG RD + FORD AVE",,40.476736,-79.782693,,,,,,0
14749,14749,"SALTSBURG RD + UNIVERSAL RD FS",,40.477681,-79.785400,,,,,,0
14752,14752,"SALTSBURG RD + COLONIAL VILLAGE DR",,40.475044,-79.791016,,,,,,0
14753,14753,"SALTSBURG RD + TILFORD RD",,40.475033,-79.792099,,,,,,0
14754,14754,"SALTSBURG RD + CHANTICLEER DR",,40.475500,-79.793749,,,,,,0
14755,14755,"SALTSBURG RD + ALCOMA DR",,40.477017,-79.798096,,,,,,0
14756,14756,"SALTSBURG RD + HERSHEY RD",,40.477718,-79.799706,,,,,,0
14759,14759,"SALTSBURG RD + CRESTVIEW APTS",,40.481449,-79.805733,,,,,,0
14760,14760,"SALTSBURG RD + STOTLER RD",,40.482749,-79.809457,,,,,,0
14762,14762,"SALTSBURG RD + ASTER ST NS",,40.483902,-79.814333,,,,,,0
14763,14763,"SALTSBURG RD + LEECHBURG RD",,40.484983,-79.817407,,,,,,0
14790,14790,"SALTSBURG RD + CHANTICLEER DR",,40.475468,-79.793738,,,,,,0
14791,14791,"SALTSBURG RD + TILFORD RD",,40.475018,-79.792216,,,,,,0
14792,14792,"SALTSBURG RD + COLONIAL VILLAGE DR",,40.475030,-79.790912,,,,,,0
14796,14796,"SALTSBURG RD + PIERSON RUN RD FS",,40.477062,-79.759684,,,,,,0
14844,14844,"FRIENDSHIP AVE + FAIRMOUNT FS",,40.461476,-79.934539,,,,,,0
14852,14852,"FRIENDSHIP AVE + MILLVALE AVE",,40.462720,-79.945472,,,,,,0
14853,14853,"FRIENDSHIP AVE + EDMOND ST",,40.462889,-79.947706,,,,,,0
14854,14854,"FRIENDSHIP AVE + PEARL ST",,40.463490,-79.948812,,,,,,0
14855,19120,"ELLA ST + FRIENDSHIP AVE FS",,40.464453,-79.950619,,,,,,0
14856,14856,"ELLA ST + LIBERTY",,40.463297,-79.951732,,,,,,0
14857,2609,"LIBERTY AVE + CANOE WAY",,40.463252,-79.955043,,,,,,0
14861,19447,"HOWLEY ST + SHUR SAVE DRVWY (GANGWISH)",,40.464384,-79.952270,,,,,,0
14862,14862,"HOWLEY ST + FRIENDSHIP",,40.465054,-79.951390,,,,,,0
14863,14863,"FRIENDSHIP AVE + ELLA ST",,40.464615,-79.950508,,,,,,0
14864,14864,"FRIENDSHIP AVE + TAYLOR ST",,40.464046,-79.949724,,,,,,0
14865,14865,"FRIENDSHIP AVE + PEARL ST",,40.463627,-79.949135,,,,,,0
14866,14866,"FRIENDSHIP AVE + EDMOND ST",,40.462614,-79.947863,,,,,,0
14867,19127,"FRIENDSHIP AVE +  MILLVALE AVE",,40.462386,-79.946194,,,,,,0
14868,14868,"FRIENDSHIP AVE + GROSS",,40.462265,-79.944658,,,,,,0
14920,14920,"LONG RD + DATURA",,40.462399,-79.833922,,,,,,0
14921,14921,"LONG RD + PARIS",,40.459087,-79.833998,,,,,,0
14922,14922,"LONG RD + SAYLONG",,40.456090,-79.835977,,,,,,0
14923,14923,"LONG RD + PENTLAND",,40.454316,-79.837629,,,,,,0
14950,14950,"LONG RD + ROSEWOOD",,40.454351,-79.837490,,,,,,0
14951,14951,"LONG RD + SAYLONG",,40.455986,-79.835983,,,,,,0
14952,14952,"LONG RD + JOAN",,40.458876,-79.833970,,,,,,0
14953,14953,"LONG RD + ELIZABETH",,40.462170,-79.833965,,,,,,0
14955,14955,"LONG RD + FRANKSTOWN",,40.465565,-79.832209,,,,,,0
14959,14959,"JEFFERSON RD + UNIVERSAL",,40.465379,-79.824506,,,,,,0
14962,19981,"MAIN ST + 62ND ST BRIDGE",,40.495403,-79.939415,,,,,,0
14964,14964,"BUTLER ST + #6002",,40.486333,-79.943177,,,,,,0
14965,14965,"BUTLER ST + 57TH",,40.485257,-79.946171,,,,,,0
14966,14966,"BUTLER ST + 56TH",,40.484504,-79.947935,,,,,,0
14967,14967,"BUTLER ST + 51ST (STANTON)",,40.478523,-79.955589,,,,,,0
14968,14968,"BUTLER ST + 49TH",,40.477139,-79.956902,,,,,,0
14969,14969,"BUTLER ST + 48TH",,40.475983,-79.957703,,,,,,0
14970,14970,"BUTLER ST + 47TH",,40.474084,-79.957939,,,,,,0
14971,14971,"BUTLER ST + 46TH",,40.472942,-79.958756,,,,,,0
14972,14972,"BUTLER ST + 44TH",,40.471596,-79.959755,,,,,,0
14973,14973,"BUTLER ST + 43RD",,40.470806,-79.960251,,,,,,0
14974,14974,"BUTLER ST + 41ST",,40.469586,-79.961250,,,,,,0
14976,14976,"BUTLER ST + MAIN",,40.469700,-79.960976,,,,,,0
14977,14977,"BUTLER ST + 43RD",,40.470478,-79.960373,,,,,,0
14978,14978,"BUTLER ST + 44TH",,40.471294,-79.959801,,,,,,0
14979,14979,"BUTLER ST + 46TH",,40.472671,-79.958847,,,,,,0
14980,14980,"BUTLER ST + 47TH",,40.473847,-79.957954,,,,,,0
14981,14981,"BUTLER ST + 48TH",,40.475681,-79.957550,,,,,,0
14982,14982,"BUTLER ST + 49TH",,40.476992,-79.956919,,,,,,0
14983,14983,"BUTLER ST + 50TH",,40.477838,-79.956122,,,,,,0
14984,14984,"BUTLER ST + 56TH",,40.484234,-79.948296,,,,,,0
14985,14985,"BUTLER ST + 57TH",,40.485073,-79.946396,,,,,,0
15071,15071,"CORBET ST + 8TH",,40.604394,-79.753265,,,,,,0
15072,15072,"CORBET ST + 6TH",,40.603119,-79.752560,,,,,,0
15079,15079,"CORBET ST + 6TH",,40.602932,-79.752394,,,,,,0
15081,15081,"FREEPORT RD + SPRING HILL",,40.626517,-79.721271,,,,,,0
15084,15084,"WASHINGTON BLVD + NEGLEY RUN FS",,40.470047,-79.908729,,,,,,0
15090,15090,"LONG RD + BEULAH",,40.450710,-79.843491,,,,,,0
15092,15092,"WM PENN HWY + OLD GATE",,40.445726,-79.855115,,,,,,0
15109,19146,"BEULAH RD + MCCRADY RD",,40.446755,-79.848480,,,,,,0
15112,15112,"HULTON RD + 13TH",,40.524735,-79.827057,,,,,,0
15122,15122,"HULTON RD + HULTON ARBORS",,40.513655,-79.804199,,,,,,0
15123,15123,"HULTON RD + HULTON ESTATES",,40.513214,-79.803198,,,,,,0
15149,15149,"HULTON RD + HULTON ESTATES",,40.513394,-79.803444,,,,,,0
15150,15150,"HULTON RD + HULTON ARBORS",,40.513741,-79.804234,,,,,,0
15218,15218,"WOOD ST + FRANKLIN",,40.441207,-79.886095,,,,,,0
15263,15263,"FREEPORT RD + #1050",,40.487257,-79.884597,,,,,,0
15270,15270,"WEST BUSWAY + SHERADEN STATION B",,40.452707,-80.052905,,,,,,0
15275,15275,"WEST BUSWAY + CARNEGIE STATION",,40.406091,-80.090234,,,,,,0
15276,15276,"WEST BUSWAY + CARNEGIE STATION",,40.406216,-80.090038,,,,,,0
15277,15277,"WEST BUSWAY + BELL STATION C",,40.415600,-80.082726,,,,,,0
15278,15278,"WEST BUSWAY + IDLEWOOD STATION C",,40.426224,-80.072562,,,,,,0
15279,15279,"WEST BUSWAY + CRAFTON STATION C",,40.435745,-80.067571,,,,,,0
15280,15280,"WEST BUSWAY + INGRAM STATION C",,40.443860,-80.065889,,,,,,0
15281,15281,"WEST BUSWAY + SHERADEN STATION C",,40.452566,-80.052935,,,,,,0
15283,15283,"LIBERTY AVE + 9TH ST",,40.442835,-79.998105,,,,,,0
15284,1403,"LIBERTY AVE + SMITHFIELD ST",,40.443186,-79.996792,,,,,,0
15285,15285,"LIBERTY AVE + WILLIAM PENN PL",,40.443544,-79.995390,,,,,,0
15287,15287,"GRANT ST + LIBERTY AVE FS (FED BLDG)",,40.443292,-79.994316,,,,,,0
15352,159,"MCKNIGHT RD + EVERGREEN RD",,40.493465,-80.011597,,,,,,0
15418,15418,"DRIVE TO LOWES + STOREFRONT DRIVE",,40.412970,-79.903123,,,,,,0
15423,15423,"GIANT EAGLE DRIVE + DRUG STORE",,40.411455,-79.908297,,,,,,0
15428,15428,"AMITY ST + TARGET DRIVE",,40.409837,-79.912281,,,,,,0
15433,15433,"COMMONWEALTH + RITE AID",,40.383012,-79.876429,,,,,,0
15438,15438,"MALL AT ROBINSON + ENTRANCE K",,40.452900,-80.156992,,,,,,0
15452,15452,"NEGLEY AVE + KENTUCKY",,40.450566,-79.930145,,,,,,0
15453,15453,"NEGLEY AVE + WALNUT",,40.452143,-79.931078,,,,,,0
15454,15454,"NEGLEY AVE + ELMER",,40.453261,-79.931738,,,,,,0
15455,15455,"NEGLEY AVE + ELLSWORTH",,40.454902,-79.932714,,,,,,0
15456,15456,"NEGLEY AVE + CLAYBOURNE",,40.456655,-79.933747,,,,,,0
15462,15462,"CENTRE AVE + WHOLE FOODS",,40.458996,-79.928060,,,,,,0
15463,15463,"HWY RT 51 + JEFFERSON VETERINARY CLINIC",,40.301396,-79.929547,,,,,,0
15474,15474,"GRANT ST + 7TH AVE FS",,40.442787,-79.994301,,,,,,0
15495,15495,"LARGE PARK AND RIDE INBOUND PL",,40.293240,-79.910950,,,,,,0
15548,15548,"MT ROYAL BLVD + HAMPTON",,40.554467,-79.971234,,,,,,0
15549,19526,"PEEBLES + MCINTYRE SQUARE DRIVEWAY",,40.557269,-80.017633,,,,,,0
15587,15587,"BLAZIER + GIANT EAGLE",,40.585354,-80.037534,,,,,,0
15601,15601,"WM PENN HWY + JADENS II",,40.431966,-79.730328,,,,,,0
15634,15634,"UNIVERSITY BLVD PARK AND RIDE AT SHELTER",,40.503917,-80.225737,,,,,,0
15659,15659,"FORBES AVE + SCHENLEY DR",,40.437974,-79.933358,,,,,,0
15664,15666,"GIANT EAGLE (VERONA RD) AT ENTRANCE",,40.462338,-79.865005,,,,,,0
15665,15665,"ROBINSON BLVD + DOUGLAS",,40.455676,-79.863734,,,,,,0
15671,15671,"CHISLETT ST + WELLSLEY",,40.475715,-79.929901,,,,,,0
15674,15674,"PARK HILL DR + #2567",,40.456619,-79.871804,,,,,,0
15675,15675,"PARK HILL DR + #2501",,40.456271,-79.873382,,,,,,0
15676,15676,"PARK HILL DR + #2401",,40.455542,-79.874206,,,,,,0
15678,15678,"PARK HILL DR + #2101",,40.452989,-79.874317,,,,,,0
15716,15716,"ROSS PARK AND RIDE ENTRANCE AT HOV RAMP",,40.507614,-80.030113,,,,,,0
15732,15732,"GREENSBURG PK + CORVETTE TECHNICIANS",,40.382375,-79.818214,,,,,,0
15734,15734,"WARREN DR + WAL MART DRWY",,40.385718,-79.821611,,,,,,0
15736,15736,"WARREN DR + WAL MART DRWY",,40.385476,-79.821663,,,,,,0
15744,15744,"COCHRAN + OSAGE RD",,40.388581,-80.057434,,,,,,0
15746,15746,"COCHRAN + ROBINWOOD",,40.390833,-80.059083,,,,,,0
15747,15747,"COCHRAN + ROESSLER",,40.392973,-80.063113,,,,,,0
15833,15833,"ARLINGTON+ JOHN F.S.",,40.417950,-79.987142,,,,,,0
15835,15835,"BELTZHOOVER + CEDARHURST",,40.418453,-79.997337,,,,,,0
15836,15836,"BELTZHOOVER + FREELAND",,40.419206,-79.997358,,,,,,0
15838,15838,"BELTZHOOVER + FREELAND",,40.419026,-79.997262,,,,,,0
15839,15839,"BELTZHOOVER + ORCHARD",,40.417847,-79.997214,,,,,,0
15842,15842,"GRANDVIEW AVE + #1209 (DUQUESNE INCLINE)",,40.438188,-80.018936,,,,,,0
15844,15844,"FINGAL ST + #225(FINGAL/RUTLDGE TERMIN)",,40.440038,-80.027037,,,,,,0
15851,15851,"WALMART + SHELTER (N VERSAILLES)",,40.387864,-79.823247,,,,,,0
15853,15853,"WATERFRONT DRIVE + COMMONWEALTH BANK",,40.413344,-79.907259,,,,,,0
15874,20379,"WATERFRONT DRIVE + RECREATION CENTER",,40.413917,-79.904917,,,,,,0
15876,15876,"MOUNTAINVIEW DR + CENTURY DR FS",,40.346586,-79.951512,,,,,,0
15878,15878,"EAST BUSWAY + HAMNETT STATION C",,40.437189,-79.885613,,,,,,0
15879,15879,"EAST BUSWAY + ROSLYN STATION C",,40.419440,-79.886376,,,,,,0
15880,15880,"EAST BUSWAY + WILKINSBURG STATION C",,40.446887,-79.888646,,,,,,0
15881,15881,"WEST COMMONS + THE ALLEGHENY SENIOR HOME",,40.450584,-80.007149,,,,,,0
15885,15885,"RUTH ST + KATHLEEN",,40.425795,-80.005168,,,,,,0
15886,15886,"KATHLEEN + HARWOOD",,40.425450,-80.004162,,,,,,0
15887,15887,"KATHLEEN + HABERMAN",,40.425539,-80.002824,,,,,,0
15908,15908,"CENTURY SQUARE ENTRANCE RAMP + MOUNTIANVIEW",,40.347555,-79.949110,,,,,,0
15952,15952,"PENNSYLVANIA + BRIGHTON",,40.456026,-80.015513,,,,,,0
15974,15974,"GRAND AVE + HUBERT (NEVILLE PNR)",,40.512871,-80.135091,,,,,,0
15980,15980,"SILVER LANE + DIANA FS",,40.459539,-80.138833,,,,,,0
15991,15991,"GRAND AVE + NEVILLE METALS",,40.506232,-80.106802,,,,,,0
15992,15992,"HERBST + BOSTIAN",,40.485336,-80.113008,,,,,,0
16014,16014,"HAY ST RAMP + INBOUND SHELTER",,40.443528,-79.886976,,,,,,0
16019,16019,"OAK HILL + HYMAN",,40.441375,-79.970077,,,,,,0
16020,16020,"OAK HILL + BENTLY",,40.440214,-79.969859,,,,,,0
16022,16022,"ALLEQUIPPA ST + SR RESIDENCE (#2418)",,40.440622,-79.968550,,,,,,0
16023,16023,"ALLEQUIPPA ST + WHITRIDGE",,40.441034,-79.968027,,,,,,0
16024,16024,"ALLEQUIPPA ST + ROBINSON",,40.442734,-79.965859,,,,,,0
16025,16025,"WADSWORTH ST + ROBINSON",,40.443311,-79.966436,,,,,,0
16026,16026,"ECKSTIEN + WADSWORTH",,40.442613,-79.968430,,,,,,0
16027,16027,"BENTLY DR + OAK HILL",,40.440034,-79.969837,,,,,,0
16028,16028,"OAK HILL DR + ECKSTIEN",,40.441506,-79.969941,,,,,,0
16029,16029,"EAST LIBERTY DRWY + FIFTH FS",,40.456011,-79.910856,,,,,,0
16051,16051,"AMBRIDGE PARK AND RIDE",,40.592449,-80.228140,,,,,,0
16063,16063,"EAST BUSWAY + SWISSVALE STATION A",,40.415288,-79.879050,,,,,,0
16086,16086,"CHATEAU + FRANKLIN",,40.455436,-80.028775,,,,,,0
16104,16104,"EAST BUSWAY + WILKINSBURG STATION A",,40.446560,-79.888573,,,,,,0
16105,16105,"EAST BUSWAY + HAMNETT STATION A",,40.436841,-79.885696,,,,,,0
16106,16106,"EAST BUSWAY + ROSLYN STATION A",,40.419086,-79.886292,,,,,,0
16107,16107,"EAST BUSWAY + HERRON STATION B",,40.459163,-79.966949,,,,,,0
16109,16109,"EAST BUSWAY + EAST LIBERTY STATION B",,40.459348,-79.923089,,,,,,0
16110,16110,"EAST BUSWAY + HOMEWOOD STATION B",,40.453000,-79.899379,,,,,,0
16111,16111,"EAST BUSWAY + WILKINSBURG STATION B",,40.446781,-79.888757,,,,,,0
16118,16118,"EAST BUSWAY + WILKINSBURG STATION D",,40.446630,-79.888475,,,,,,0
16119,16119,"EAST BUSWAY + HOMEWOOD STATION D",,40.452929,-79.898897,,,,,,0
16120,16120,"EAST BUSWAY + EAST LIBERTY STATION D",,40.459539,-79.922767,,,,,,0
16121,16121,"EAST BUSWAY + NEGLEY STATION D",,40.456705,-79.932622,,,,,,0
16122,16122,"EAST BUSWAY + HERRON STATION D",,40.459362,-79.966613,,,,,,0
16177,16177,"WOODSTOCK AVE + SWISSVALE STATION STEPS",,40.415777,-79.878730,,,,,,0
16198,16198,"E PGH-MCKSPT BLVD + OVERHILL",,40.377703,-79.828056,,,,,,0
16201,20581,"E PGH-MCKSPT BLVD + #625",,40.374323,-79.827698,,,,,,0
16227,16227,"BOWMAN AVE + LIME",,40.360891,-79.832850,,,,,,0
16229,16229,"EAST PITTSBURGH-MCKEESPORT + FAIRMONT",,40.362175,-79.830558,,,,,,0
16230,16230,"EAST PITTSBURGH-MCKEESPORT BLVD + AULT",,40.364505,-79.829199,,,,,,0
16231,16231,"EAST PITTSBURGH-MCKEESPORT BLVD + ORRIS",,40.368953,-79.830665,,,,,,0
16233,16233,"EAST PITTSBURGH-MCKEESPORT BLVD + THE LANE",,40.371262,-79.828348,,,,,,0
16243,16243,"PORT PERRY RD + CLYDE",,40.385900,-79.832527,,,,,,0
16261,16261,"LINCOLN AVE + BURNSIDE",,40.489103,-80.046984,,,,,,0
16270,16270,"DUQUESNE BLVD + GRANT",,40.373794,-79.845012,,,,,,0
16281,16281,"WAL MART DR + SHELTER",,40.341259,-79.944847,,,,,,0
16340,16340,"PROSPECT RD + BERLY",,40.361337,-79.962258,,,,,,0
16344,20446,"WOODSTOCK + SWISSVALE STATION STEPS",,40.415683,-79.878250,,,,,,0
16346,16346,"EAST HILLS DR + #2340",,40.455867,-79.870829,,,,,,0
16347,16347,"MT TROY RD + BAUN",,40.481491,-79.989209,,,,,,0
16384,16384,"OXFORD DR + HOME DEPOT",,40.344515,-80.049766,,,,,,0
16403,16403,"KNOEDLER RD + MERRYHEART HOME #100",,40.341969,-79.982456,,,,,,0
16426,16426,"AMITY ST + 8TH NS",,40.407241,-79.911147,,,,,,0
16427,16427,"SHADY AVE + 5TH",,40.452006,-79.920397,,,,,,0
16437,16437,"WILDWOOD AVE + VERONA",,40.503342,-79.839386,,,,,,0
16443,16443,"FREEPORT RD + CALIFORNIA",,40.618413,-79.732157,,,,,,0
16470,16470,"BEATTY ST + EVA",,40.461242,-79.927437,,,,,,0
16471,16471,"BEATTY ST + BAUM NS",,40.460470,-79.927921,,,,,,0
16474,16474,"BAKER ST + #7207",,40.487813,-79.923153,,,,,,0
16482,16482,"SAMPLE RD + HIGH MEADOW",,40.573361,-79.993726,,,,,,0
16484,16484,"CRESCENT + SULLIVAN WAY",,40.502019,-79.946954,,,,,,0
16485,16485,"CRESCENT + SULLIVAN WAY",,40.502042,-79.946767,,,,,,0
16489,16489,"GEARING + FREELAND",,40.418280,-80.005260,,,,,,0
16491,16491,"FREEPORT RD + DALLAS",,40.622754,-79.726233,,,,,,0
16500,16500,"MON0NGAHELA + #2129",,40.417361,-79.887544,,,,,,0
16529,16529,"WEST VIEW FIRE LN + WORKOUT ANYTIME",,40.517571,-80.037758,,,,,,0
16535,16535,"LINDEN + BEECH",,40.399804,-79.835514,,,,,,0
16551,16551,"WASHINGTON BLVD + CYPHERS COMPANY",,40.463186,-79.905896,,,,,,0
16556,16556,"ALLEGHENY AVE + PENNSYLVANIA",,40.522058,-79.842640,,,,,,0
16558,16558,"ALLEGHENY AVE + MARYLAND",,40.518921,-79.843051,,,,,,0
16559,16559,"ALLEGHENY AVE  +  DELAWARE",,40.517799,-79.843205,,,,,,0
16560,16560,"ALLEGHENY AVE + WASHINGTON",,40.516380,-79.843348,,,,,,0
16562,16562,"ALLEGHENY AVE +  CALIFORNIA",,40.515345,-79.843382,,,,,,0
16563,16563,"ALLEGHENY AVE + WASHINGTON",,40.516134,-79.843288,,,,,,0
16564,16564,"ALLEGHENY AVE  +  DELAWARE",,40.517633,-79.843102,,,,,,0
16566,16566,"ALLEGHENY AVE + ANN",,40.520159,-79.842814,,,,,,0
16567,16567,"ALLEGHENY AVE + PENNSYLVANIA",,40.521832,-79.842593,,,,,,0
16568,16568,"ALLEGHENY AVE + ARCHIE",,40.523682,-79.841961,,,,,,0
16569,16569,"ALLEGHENY AVE + HULTON",,40.524786,-79.841354,,,,,,0
16572,16572,"OAKWOOD ST + NIMICK PLACE",,40.449860,-79.884232,,,,,,0
16595,16595,"E 4TH AVE + BOYD",,40.600704,-79.756126,,,,,,0
16596,16596,"LINCOLN AVE + VERONA",,40.472931,-79.888966,,,,,,0
16601,16601,"CENTRE AVE + DITHRIDGE",,40.451428,-79.953432,,,,,,0
16604,16604,"WEST ST + HOMESTEAD HEALTH CTR",,40.399708,-79.904832,,,,,,0
16605,16605,"2ND ST + OLIVER",,40.376552,-79.849998,,,,,,0
16606,16606,"2ND ST + HAMILTON",,40.375027,-79.848608,,,,,,0
16607,16607,"2ND ST + SR CITIZEN HI-RISE",,40.373904,-79.847584,,,,,,0
16611,16611,"BROWNSVILLE RD + TOWN SQUARE",,40.366744,-79.980960,,,,,,0
16612,16612,"BROWNSVILLE RD + GIANT EAGLE",,40.365626,-79.982424,,,,,,0
16614,16614,"KNOEDLER RD + BALDWIN TOWERS (#200)",,40.341909,-79.982312,,,,,,0
16620,16620,"KENNEDY AVE + DELL",,40.366496,-79.857290,,,,,,0
16627,16627,"WALLACE AVE + PITT",,40.445320,-79.886694,,,,,,0
16628,16628,"WALLACE AVE + HAY",,40.444868,-79.885315,,,,,,0
16637,16637,"CRAFTON INGRAM S.C. + BANK (CITIZENS)",,40.440389,-80.069690,,,,,,0
16648,16648,"VIRGINIA AVE + BIGHAM",,40.431984,-80.015540,,,,,,0
16650,16650,"CLEVER RD + FIELD CLUB",,40.468800,-80.126358,,,,,,0
16651,16651,"CLEVER RD + MONTOUR HIGH SCHOOL",,40.468488,-80.123990,,,,,,0
16652,16652,"CLEVER RD + PITCHFORK",,40.464995,-80.109499,,,,,,0
16678,16678,"WALNUT ST + WAMPLER",,40.317288,-79.833672,,,,,,0
16679,16679,"WALNUT ST + WAMPLER",,40.317162,-79.833728,,,,,,0
16680,16680,"KENDALL AVE + CEDAR",,40.486660,-80.053636,,,,,,0
16695,16695,"LINCOLN + HARRISON",,40.493535,-80.051521,,,,,,0
16779,16779,"BROADWAY BLVD + #1010",,40.400742,-79.772732,,,,,,0
16832,16832,"BENTLEY DR + BURROWS",,40.439637,-79.970657,,,,,,0
16839,16839,"CAMP ST + BRYN MAWR",,40.452088,-79.958805,,,,,,0
16841,16841,"MCKNIGHT RD + DUNCAN",,40.568787,-80.023956,,,,,,0
16842,16842,"MCKNIGHT RD + DUNCAN",,40.568066,-80.023872,,,,,,0
16845,16845,"BENTLEY DR + BURROWS",,40.439823,-79.970364,,,,,,0
16881,16881,"BRIGHTON RD + BRIGHTRIDGE ST FS (BREADWORKS)",,40.461496,-80.018859,,,,,,0
16882,16882,"CAMBRONNE ST + WINHURST",,40.488497,-80.043300,,,,,,0
16887,16887,"MAIN ST + 23RD",,40.493420,-79.914229,,,,,,0
16932,16932,"VANN RD + MINGO",,40.465035,-79.892789,,,,,,0
16940,16940,"HECKEL RD OPP KENMAWR PLAZA",,40.473413,-80.094148,,,,,,0
16950,16950,"PRESIDENTIAL DR + WASHINGTON",,40.584852,-79.999604,,,,,,0
16963,16963,"OHIO RIVER BLVD + THRIFT STORE",,40.495210,-80.065870,,,,,,0
16967,16967,"BAUM BLVD + AIKEN",,40.457059,-79.938339,,,,,,0
16981,16981,"UNIVERSAL RD + MAIN",,40.467691,-79.793399,,,,,,0
16991,16991,"PATRIOT WAY + DELAFIELD",,40.497006,-79.890916,,,,,,0
17007,17007,"GREENTREE RD + ST MARGARET SCHOOL DRIVEWAY",,40.423084,-80.044874,,,,,,0
17081,17081,"BROADWAY BLVD + #1010",,40.400799,-79.772972,,,,,,0
17109,17109,"WM PENN HWY + DOLLAR BANK",,40.438818,-79.764542,,,,,,0
17110,17110,"WM PENN HWY + ECKARD",,40.438669,-79.767918,,,,,,0
17126,17126,"JAMES ST + BUENA VISTA",,40.420174,-79.808328,,,,,,0
17168,17168,"PARK MANOR DR + ROBINSON CENTER DR",,40.451745,-80.161385,,,,,,0
17170,17170,"LINCOLN HWY + GREENSBURG PIKE",,40.381460,-79.816771,,,,,,0
17182,17182,"AIRBRAKE AVE + #620",,40.396320,-79.810545,,,,,,0
17212,17212,"CLOVERFIELD ST + AGNEW",,40.398709,-79.964555,,,,,,0
17224,17224,"5TH AVE + #1681",,40.353324,-79.846079,,,,,,0
17229,17229,"HAZELWOOD AVE + GLADSTONE",,40.412525,-79.940300,,,,,,0
17235,17235,"JEFFERS ST + #1330",,40.453006,-80.065562,,,,,,0
17263,17263,"S 26TH ST + SIDNEY",,40.428212,-79.967983,,,,,,0
17264,17264,"SIDNEY ST + S 27TH",,40.427862,-79.966481,,,,,,0
17265,17265,"SIDNEY ST + S 28TH",,40.427134,-79.964965,,,,,,0
17269,17269,"GREENFIELD AVE+  322",,40.425356,-79.948151,,,,,,0
17277,17277,"SHADY AVE + HOBART",,40.434362,-79.918710,,,,,,0
17284,17284,"MILLVALE AVE.+MITRE WAY",,40.459597,-79.946247,,,,,,0
17286,17286,"EAST CARSON ST + 11TH",,40.428772,-79.987377,,,,,,0
17293,17293,"AMITY ST + 9TH",,40.406346,-79.910035,,,,,,0
17307,17307,"SOUTHERN AV+ COWAN",,40.427595,-80.008950,,,,,,0
17313,17313,"WOODSTOCK AVE +2690",,40.414304,-79.872838,,,,,,0
17323,17323,"FREEPORT RD + EVERGREEN",,40.649166,-79.708945,,,,,,0
17324,17324,"FREEPORT RD + EVERGREEN",,40.649055,-79.708800,,,,,,0
17327,17327,"FREEPORT RD + ALTERMOOR DR",,40.655803,-79.707327,,,,,,0
17335,17335,"SWISSVALE AVE + COAL",,40.434899,-79.882796,,,,,,0
17347,17347,"VILLAGE DR + SOUTH HIILS VILLAGE PARKING GARAGE",,40.340025,-80.053800,,,,,,0
17349,17349,"FREEPORT RD + OAK MANOR",,40.651210,-79.708426,,,,,,0
17350,17350,"FREEPORT RD + OAK MANOR",,40.650726,-79.708371,,,,,,0
17355,17355,"FREEPORT RD + DOLLAR BANK(WATERWORKS)",,40.487273,-79.885363,,,,,,0
17356,17356,"FREEPORT + #1050",,40.487400,-79.884395,,,,,,0
17374,17374,"CHARTIERS VALLEY SC DR + GIANT EAGLE",,40.366977,-80.109697,,,,,,0
17381,17381,"MCCOY RD + #208",,40.474662,-80.070752,,,,,,0
17389,17389,"MCKNIGHT RD + IVORY AVE RAMP FS",,40.499126,-80.012829,,,,,,0
17422,17422,"DYNAMO WAY + BEECH",,40.400510,-79.835580,,,,,,0
17426,17426,"JEFFERSON DR + COMMUNITY CENTER",,40.480002,-80.076496,,,,,,0
17427,17427,"PLEASANT RIDGE RD + OAK",,40.479061,-80.073827,,,,,,0
17430,17430,"OVERLOOK PLACE + PLEASANT RIDGE",,40.480071,-80.075060,,,,,,0
17431,17431,"PLEASANT RIDGE + SENIOR HIGHRISE",,40.480035,-80.076368,,,,,,0
17432,17432,"JEFFERSON DR + MCOY",,40.479716,-80.078489,,,,,,0
17453,17453,"VANADIUM RD + BOWER HILL",,40.368406,-80.084332,,,,,,0
17503,17503,"BROADHEAD-FORDING RD + W PROSPECT",,40.448575,-80.082218,,,,,,0
17509,17509,"WORTHINGTON AVE + INTERSTATE LOUNGE(#1560)",,40.292744,-79.909534,,,,,,0
17510,17510,"WORTHINGTON AVE + INTERSTATE LOUNGE(#1560)",,40.292725,-79.909450,,,,,,0
17518,17518,"AMITY ST + 8TH",,40.406968,-79.910707,,,,,,0
17519,17519,"AMITY + 7TH AVE",,40.407336,-79.911127,,,,,,0
17520,17520,"EVANS AVE + MCKEESPORT HOSPITAL EMERGENCY",,40.350924,-79.849927,,,,,,0
17521,17521,"EVANS AVE + MCKEESPORT HOSPITAL MAIN ENTRANCE",,40.351476,-79.850446,,,,,,0
17533,17533,"PROSPECT RD + CAPAREL TOWNHOUSES",,40.359633,-79.959714,,,,,,0
17534,17534,"PROSPECT RD + BERYL FS",,40.361387,-79.962217,,,,,,0
17552,17552,"BRIGHTON RD + ARMANDALE",,40.458032,-80.016051,,,,,,0
17592,17592,"BAPTIST + WEYMAN RD FS (CASTE VILLAGE)",,40.357663,-80.000317,,,,,,0
17602,17602,"HIGHLAND AVE + BROAD ST",,40.462605,-79.924351,,,,,,0
17625,17625,"PLEASANT RIDGE RD + OVERLOOK",,40.480536,-80.072590,,,,,,0
17633,17633,"WEST BUSWAY + BELL STATION A",,40.415441,-80.083026,,,,,,0
17634,17634,"BROWNSVILLE RD + MATHEWS",,40.413422,-79.988655,,,,,,0
17645,17645,"STEUBENVILLE PIKE + HADDOCK",,40.449416,-80.107668,,,,,,0
17647,17647,"WATERFRONT DR +  COSTCO WHOLESALE DRVWY",,40.404341,-79.920553,,,,,,0
17656,18827,"WATERWORKS DR + BED BATH & BEYOND (WALMART)",,40.488022,-79.889769,,,,,,0
17666,17666,"ELIZA ST + DIVISION",,40.394594,-79.879598,,,,,,0
17671,17671,"FIFTH AVE + MCKEE",,40.440629,-79.959911,,,,,,0
17677,17677,"ROSS ST + WOOD",,40.442493,-79.884110,,,,,,0
17733,17733,"SECOND AVENUE + PGH TECH CTR (MIDDLE ACCESS ROAD)",,40.432779,-79.962507,,,,,,0
17734,17734,"VA HOSPITAL TRANSIT LOOP + SHELTER",,40.446697,-79.960418,,,,,,0
17736,17736,"MAIN + 22ND",,40.397711,-79.901554,,,,,,0
17737,17737,"WATERFRONT DR + BRIDGE ST. (RED ROBIN)",,40.409498,-79.916568,,,,,,0
17740,17740,"TARGET DR + TARGET PERIMETER RD",,40.411125,-79.909742,,,,,,0
17744,17744,"TARGET DR + TARGET PERIMETER RD",,40.410010,-79.912595,,,,,,0
17749,4854,"E CARSON ST + 24TH",,40.428163,-79.971310,,,,,,0
17764,17764,"5TH  AVENUE + GRANT",,40.439220,-79.996223,,,,,,0
17765,17765,"FIFTH AVE RAMP + FIFTH AVE NS",,40.455928,-79.910932,,,,,,0
17791,17791,"MCKSPT TRANSPORTATION CTR + BAY #2",,40.352308,-79.860558,,,,,,0
17824,17824,"WATERFRONT DR + LOEWS THEATER",,40.407484,-79.918805,,,,,,0
18141,18141,"ELLSWORTH AVE + EAST LIBERTY STATION",,40.459262,-79.922968,,,,,,0
18142,18142,"ELLSWORTH AVE+ SPAHR",,40.458357,-79.927439,,,,,,0
18148,18148,"GROSS ST + FRIENDSHIP",,40.462316,-79.944469,,,,,,0
18149,18149,"FRIENDSHIP AVE + HOWLEY",,40.465109,-79.951069,,,,,,0
18150,18150,"39TH ST + BUTLER",,40.467498,-79.963592,,,,,,0
18152,18152,"40TH + GOVERNMENT WAY STEPS",,40.465577,-79.958451,,,,,,0
18153,18153,"FRIENDSHIP AVE + HOWLEY",,40.465250,-79.951388,,,,,,0
18156,18156,"MURRAY AVE + BEACON",,40.434911,-79.922897,,,,,,0
18158,18158,"MCKEESPORT TRANSPORTATION CENTER AT BAY #2",,40.352277,-79.860926,,,,,,0
18159,18159,"DUQUESNE + LIBRARY",,40.371923,-79.843883,,,,,,0
18161,18161,"FIFTH AVE + DIAMOND ST",,40.438923,-79.992504,,,,,,0
18164,18164,"FIFTH AVE + KIRKPATRICK FS",,40.437875,-79.973039,,,,,,0
18165,18165,"FIFTH AVE + BRENHAM FS",,40.436504,-79.968541,,,,,,0
22873,22733,"FORBES HOSPITAL",,40.429133,-79.749055,,,,,,0
22874,22729,"MONROEVILLE BLVD OPP TARGET DRIVE",,40.435795,-79.770582,,,,,,0
22875,22730,"MONROEVILLE BLVD AT OXFORD DR",,40.430599,-79.785740,,,,,,0
22876,22731,"MONROEVILLE BLVD AT OXFORD DR FS",,40.430855,-79.785356,,,,,,0
22877,22732,"NORTHERN PIKE AT MOSSIDE BLVD",,40.433937,-79.753502,,,,,,0
22878,22734,"NORTHERN PIKE AT MOSSIDE BLVD FS",,40.433941,-79.754355,,,,,,0
22879,22735,"MONROEVILLE BLVD OPP IVANHOE DR",,40.434022,-79.764605,,,,,,0
22880,22736,"MONROEVILLE BLVD AT IVANHOE DR",,40.433967,-79.763965,,,,,,0
22881,22737,"MONROEVILLE BLVD AT TARGET DR FS",,40.435533,-79.770294,,,,,,0
22882,22740,"MONROEVILLE BLVD AT NORTHERN PIKE",,40.436462,-79.780141,,,,,,0
22883,22741,"MONROEVILLE BLVD AT MUNICIPAL BLDG",,40.436466,-79.780039,,,,,,0
22892,22746,"MCKEES ROCKS RD AT CONNIE PARK DR",,40.468556,-80.098371,,,,,,0
22893,22747,"BIGGS AVE AT GLENROSE ST",,40.464847,-80.005600,,,,,,0
22894,22749,"FT DUQUESNE BLVD AT 6TH ST",,40.443884,-80.002918,,,,,,0
22895,22751,"THE BLOCK AT NORTHWAY AT NORTHWAY APARTMENTS",,40.550241,-80.022548,,,,,,0
22896,22752,"THE BLOCK AT NORTHWAY OPP NORTHWAY APARTMENTS",,40.550100,-80.022270,,,,,,0
22897,22753,"HWY RT 885 AT LEBANON CHURCH RD (SHEETZ)",,40.347524,-79.939065,,,,,,0
22898,22754,"HAZELWOOD AVE AT OSPREY WAY",,40.411343,-79.944350,,,,,,0
22899,18183,"MCKEESPORT TRANSPORTATION CENTER AT BAY #4",,40.352097,-79.861809,,,,,,0
22901,22750,"MONROEVILLE MALL PARK AND RIDE WEST",,40.428791,-79.799665,,,,,,0
22903,22757,"BRIGHTION RD AT BASCOM",,40.489796,-80.043480,,,,,,0
22919,22748,"MOUNTAINVIEW DR AT HERITAGE CREDIT UNION DR",,40.343350,-79.953688,,,,,,0
22920,22759,"BOWER HILL RD AT McLAUGHLIN RUN RD",,40.358325,-80.105368,,,,,,0
22975,22762,"STANTON AVE AT NEGLEY AVE FS",,40.471654,-79.926549,,,,,,0
22976,22763,"PENN AVE AT S ST. CLAIR ST",,40.462814,-79.929017,,,,,,0
22977,22764,"BRADDOCK AVE AT HERITAGE HIGHLANDS FS",,40.412696,-79.876253,,,,,,0
22978,22765,"BRADDOCK AVE OPP HERITAGE HIGHLANDS",,40.412931,-79.876491,,,,,,0
22982,22771,"PITCAIRN-TRAFFORD RD OPP FORBES ROAD",,40.391178,-79.766163,,,,,,0
22983,22772,"WARRINGTON AVE AT BOGGSTON AVE",,40.420021,-80.007850,,,,,,0
22987,22773,"PENFORT ST AT #346",,40.476158,-80.000412,,,,,,0
22988,22774,"CHARTIERS AVE AT ST JOHN ST",,40.465476,-80.066361,,,,,,0
22989,22775,"VA CLINIC FRONT DOOR",,40.427906,-79.791657,,,,,,0
22990,22776,"BROADWAY AVE AT 11TH ST",,40.474072,-80.078090,,,,,,0
22998,22777,"BROADWAY BLVD OPP PITCAIRN PARK BLDG",,40.402039,-79.776642,,,,,,0
22999,22778,"BLVD OF THE ALLIES AT BATES (FARSIDE)",,40.435193,-79.956475,,,,,,0
23000,22779,"BLVD OF THE ALLIES AT BATES (NEARSIDE)",,40.435133,-79.956553,,,,,,0
23012,71050,"EVERGREEN AVE AT SHERIDAN ST",,40.480215,-79.969659,,,,,,0
23013,71051,"EVERGREEN AVE OPP KLOPFER ST",,40.485521,-79.972180,,,,,,0
23014,71052,"EVERGREEN AVE OPP WEHPLE ST",,40.479599,-79.968453,,,,,,0
23027,22796,"BLAIR ST AT #4165",,40.420632,-79.951718,,,,,,0
23028,22797,"BLAIR ST OPP #4165",,40.420621,-79.951755,,,,,,0
23033,22807,"FREELAND ST AT MCCLEARY ST",,40.347331,-79.838360,,,,,,0
23034,22808,"HIGHLAND AVE AT BROAD ST",,40.462402,-79.924325,,,,,,0
23037,22811,"N WHITFIELD ST AT BROAD ST",,40.462816,-79.925119,,,,,,0
23038,22812,"N WHITFIELD ST AT PENN AVE",,40.461819,-79.925730,,,,,,0
23045,22814,"RIDGE AVE OPP W OHIO ST",,40.451369,-80.011202,,,,,,0
23046,22815,"RIDGE AVE AT W OHIO ST",,40.451602,-80.010976,,,,,,0
23055,22824,"ROSS PARK MALL",,40.546473,-80.005283,,,,,,0
23056,22825,"WALLACE AVE AT HAY ST NS",,40.444896,-79.885606,,,,,,0
23065,22826,"BREINING ST AT BROOKLINE BLVD",,40.392201,-80.010797,,,,,,0
23067,22838,"RICHLAND AVE AT 5TH STREET",,40.350095,-79.893996,,,,,,0
23068,22839,"RICHLAND AVE OPP 5TH STREET",,40.350074,-79.894272,,,,,,0
23069,22840,"Crawford St at Bedford Ave",,40.443915,-79.988019,,,,,,0
23070,22841,"CCAC WEST",,40.436679,-80.193723,,,,,,0
23071,22842,"CCAC WEST",,40.436613,-80.193771,,,,,,0
5,5,"WESTERN AVE + GALVESTON",,40.451900,-80.016679,,,,,,0
6,6,"WESTERN AVE + BRIGHTON",,40.452355,-80.014206,,,,,,0
7,7,"BRIGHTON RD + RIDGE (CCAC)",,40.450687,-80.013512,,,,,,0
8,8,"RIDGE AVE + GALVESTON",,40.450237,-80.015516,,,,,,0
24,24,"BLVD OF ALLIES + DUQUESNE UNIV FOOTBRIDGE",,40.434850,-79.988736,,,,,,0
26,26,"FORBES AVE + CRAFT AVE FS",,40.437225,-79.962845,,,,,,0
27,27,"FORBES AVE + HALKET ST (MAGEE HOSPITAL)",,40.438295,-79.961409,,,,,,0
28,28,"FORBES AVE + MCKEE PL",,40.439670,-79.959500,,,,,,0
29,29,"FORBES AVE + ATWOOD ST",,40.440987,-79.957685,,,,,,0
32,32,"BELLEFIELD AVE + BOARD OF EDUCATION",,40.444399,-79.950906,,,,,,0
33,33,"FIFTH AVE + TENNYSON AVE",,40.445740,-79.953102,,,,,,0
34,34,"FIFTH AVE + UNIVERSITY PL",,40.443874,-79.955668,,,,,,0
35,35,"FIFTH AVE + THACKERAY AVE",,40.443282,-79.956511,,,,,,0
36,36,"FIFTH  AVE + ATWOOD ST",,40.441902,-79.958443,,,,,,0
38,38,"FIFTH  AVE + CHESTERFIELD RD",,40.439483,-79.961698,,,,,,0
39,39,"CRAFT AVE + FIFTH FS (DIALYSIS CTR)",,40.437583,-79.963749,,,,,,0
41,41,"BLVD OF ALLIES + WOOD ST",,40.438436,-80.001748,,,,,,0
42,42,"BLVD OF ALLIES + MARKET ST",,40.439089,-80.003482,,,,,,0
43,43,"BLVD OF ALLIES + STANWIX ST",,40.439575,-80.004786,,,,,,0
44,44,"STANWIX ST AT FORBES AVE",,40.441042,-80.003964,,,,,,0
57,57,"RIDGE AVE + BRIGHTON (CCAC)",,40.450375,-80.014343,,,,,,0
59,59,"WESTERN AVE + GALVESTON",,40.451977,-80.016411,,,,,,0
60,60,"WESTERN AVE + ALLEGHENY",,40.451580,-80.018486,,,,,,0
122,122,"BABCOCK BLVD AT MCCANDLESS CROSSING",,40.569004,-80.016491,,,,,,0
123,123,"BABCOCK BLVD + DUNCAN AVE",,40.567435,-80.016556,,,,,,0
124,124,"BABCOCK BLVD OPP WINCHESTER DR",,40.566028,-80.016517,,,,,,0
125,125,"BABCOCK BLVD + FAIRFIELD RD",,40.564226,-80.019086,,,,,,0
127,127,"CORPORATE DR + #5700",,40.563606,-80.022751,,,,,,0
129,129,"MCKNIGHT RD + MALIBRAN DR",,40.557392,-80.023102,,,,,,0
132,132,"MCKNIGHT RD + BROWNS LN",,40.545997,-80.017083,,,,,,0
134,134,"MCKNIGHT RD + TOYOTA DEALERSHIP",,40.540305,-80.012294,,,,,,0
135,135,"MCKNIGHT RD + ROSS TOWNE CENTER",,40.537777,-80.011459,,,,,,0
136,136,"MCKNIGHT RD + OLD MCKNIGHT RD",,40.533742,-80.011139,,,,,,0
139,139,"MCKNIGHT RD + NORTH HILLS VILLAGE (NORTH ENT)",,40.528288,-80.007259,,,,,,0
150,150,"MCKNIGHT RD + NORTHLAND MEDICAL CENTER",,40.519187,-80.005040,,,,,,0
154,154,"MCKNIGHT RD + NELSON RUN RD",,40.507012,-80.006790,,,,,,0
158,158,"MCKNIGHT RD + IVORY AVE RAMP (ISLAND)",,40.498345,-80.013054,,,,,,0
163,163,"EAST ST + VENTURE ST FS",,40.485058,-80.009567,,,,,,0
164,164,"EAST ST + MT PLEASANT RD",,40.482270,-80.005994,,,,,,0
165,165,"EAST ST + MILROY ST",,40.476913,-80.006848,,,,,,0
166,166,"EAST ST + HAZLETT ST",,40.474771,-80.005385,,,,,,0
167,167,"EAST ST + SUFFOLK ST",,40.469084,-80.001562,,,,,,0
169,169,"EAST ST + ROYAL ST",,40.465996,-79.999840,,,,,,0
170,170,"EAST ST + LAREDA ST",,40.462822,-79.998985,,,,,,0
171,171,"NORTH AVE + MIDDLE ST FS",,40.456696,-80.000267,,,,,,0
172,172,"NORTH AVE + JAMES ST",,40.456478,-80.001419,,,,,,0
174,174,"CEDAR AVE + EAST OHIO ST",,40.453461,-80.001819,,,,,,0
175,175,"CEDAR AVE + PRESSLEY ST",,40.451587,-80.001206,,,,,,0
176,176,"ANDERSON ST + LACOCK ST",,40.449867,-80.001076,,,,,,0
178,178,"ANDERSON ST + ISABELLA ST",,40.448349,-80.000656,,,,,,0
179,179,"9TH ST + PENN AVE",,40.443888,-79.998481,,,,,,0
180,180,"LIBERTY AVE + 7TH ST (CLARK BLDG)",,40.442537,-79.999766,,,,,,0
200,200,"CORBETT DR + TOWNE TOWERS NORTH",,40.546654,-80.020218,,,,,,0
201,201,"CORBETT DR + BROWNS LN",,40.545902,-80.020157,,,,,,0
202,202,"BROWNS LN + ROSS PARK DR",,40.545364,-80.019310,,,,,,0
203,203,"BROWNS LN + MCKNIGHT RD",,40.545837,-80.017010,,,,,,0
205,205,"MCKNIGHT RD + NORTH HILLS VILLAGE (SOUTH ENT)",,40.522064,-80.005447,,,,,,0
210,210,"MCINTYRE SQUARE + GABRIEL BROTHERS",,40.554013,-80.016522,,,,,,0
213,213,"7TH ST + FT DUQUESNE BLVD",,40.444445,-80.000735,,,,,,0
214,214,"SANDUSKY ST + ISABELLA ST",,40.447846,-80.001964,,,,,,0
215,215,"SANDUSKY ST + STOCKTON AVE",,40.450321,-80.002776,,,,,,0
217,217,"CEDAR AVE + NORTH AVE (AGH)",,40.456112,-80.002532,,,,,,0
219,219,"NORTH AVE + MIDDLE ST",,40.456629,-80.000195,,,,,,0
220,220,"MADISON AVE + CONCORD ST",,40.457861,-79.997990,,,,,,0
221,221,"EAST ST + LAREDA ST",,40.462256,-79.998861,,,,,,0
222,222,"EAST ST + ROYAL ST",,40.465814,-79.999642,,,,,,0
224,224,"EAST ST + SUFFOLK ST NS",,40.468904,-80.001347,,,,,,0
225,225,"EAST ST + HAZLETT ST",,40.474530,-80.005074,,,,,,0
226,226,"EAST ST + MILROY ST",,40.476754,-80.006704,,,,,,0
227,227,"EAST ST + MT PLEASANT RD",,40.482220,-80.005855,,,,,,0
228,228,"EAST ST + VENTURE ST",,40.485056,-80.009377,,,,,,0
229,229,"EVERGREEN RD + BAYTREE ST",,40.488397,-80.010081,,,,,,0
232,232,"MCKNIGHT RD + EVERGREEN RD",,40.493996,-80.011604,,,,,,0
234,234,"MCKNIGHT RD + MCKNIGHT-IVORY BLDG",,40.501455,-80.011330,,,,,,0
239,239,"MCKNIGHT RD + U-HAUL",,40.516450,-80.004397,,,,,,0
240,240,"MCKNIGHT RD + NORTHLAND MEDICAL CENTER",,40.519167,-80.004758,,,,,,0
243,243,"MCKNIGHT RD + HOUSTON RD FS",,40.526808,-80.005724,,,,,,0
244,244,"MCKNIGHT RD + NORTH HILLS VILLAGE (NORTH ENT)",,40.528148,-80.006732,,,,,,0
246,19524,"MCKNIGHT RD + OLD MCKNIGHT RD FS",,40.534181,-80.010890,,,,,,0
248,18692,"MCKNIGHT RD + MR TIRE",,40.540299,-80.012019,,,,,,0
249,249,"MCKNIGHT RD + ROSS PARK MALL DR",,40.542549,-80.013268,,,,,,0
250,20701,"MCKNIGHT RD + JOHNANNA DR FS",,40.546260,-80.016980,,,,,,0
251,251,"MCKNIGHT RD + MCINTYRE RD",,40.550342,-80.019084,,,,,,0
258,258,"BABCOCK BLVD + FAIRFIELD RD",,40.564016,-80.019290,,,,,,0
289,289,"BROWNS LN + MCKNIGHT RD FS",,40.545836,-80.017418,,,,,,0
291,291,"BROWNS LN + CORBETT DR",,40.545720,-80.020017,,,,,,0
292,292,"CORBETT DR + TOWNE TOWERS NORTH",,40.546592,-80.020111,,,,,,0
293,293,"CORBETT DR + CLUB JULIAN SPA",,40.548188,-80.020068,,,,,,0
318,318,"MCCANDLESS PARK AND RIDE",,40.586668,-80.030216,,,,,,0
320,320,"INGOMAR RD + SARATOGA DR",,40.584080,-80.028099,,,,,,0
322,322,"MCKNIGHT RD + ARCADIA DR",,40.576656,-80.026146,,,,,,0
323,323,"CUMBERLAND RD + LANCELOT DR",,40.572107,-80.022649,,,,,,0
325,325,"CUMBERLAND RD + FOX HUNT DR",,40.571888,-80.018456,,,,,,0
327,327,"MCKNIGHT RD + CUMBERLAND RD",,40.572292,-80.023789,,,,,,0
329,329,"MCKNIGHT RD + PERRYMONT RD",,40.558319,-80.023613,,,,,,0
331,331,"CUMBERLAND RD + FOX HUNT DR",,40.571960,-80.018435,,,,,,0
333,333,"CUMBERLAND RD + LANCELOT DR",,40.572170,-80.022438,,,,,,0
334,334,"MCKNIGHT RD + ARCADIA DR FS",,40.576748,-80.025970,,,,,,0
337,337,"MCKNIGHT RD + CUMBERLAND RD",,40.571861,-80.023438,,,,,,0
392,392,"PRESIDENTIAL DR + MADISON (LEASE OFFICE)",,40.583465,-79.998856,,,,,,0
393,393,"PRESIDENTIAL DR + COOLIDGE",,40.582372,-79.996940,,,,,,0
394,394,"PRESIDENTIAL DR + HARDING",,40.582099,-79.994735,,,,,,0
396,396,"SPRINGFIELD DR + PEEBLE RD FS",,40.579478,-79.994669,,,,,,0
399,399,"NORTHGATE DR + #9396",,40.576688,-79.990731,,,,,,0
400,400,"NORTHGATE DR + SAMPLE RD",,40.574761,-79.990631,,,,,,0
401,401,"SAMPLE RD + HIGH MEADOW",,40.573462,-79.993624,,,,,,0
403,403,"SAMPLE RD + COLLINGTON",,40.572079,-79.998062,,,,,,0
406,406,"SAMPLE RD + PEEBLES",,40.570639,-80.002403,,,,,,0
407,407,"PEEBLES RD + LOCUST",,40.569645,-80.003876,,,,,,0
408,408,"PEEBLES RD + KNOLL",,40.568226,-80.006073,,,,,,0
409,409,"PEEBLES RD + DUNCAN AVE FS",,40.567100,-80.007243,,,,,,0
410,410,"PEEBLES RD + PEEBLES SCHOOL RD",,40.565399,-80.008535,,,,,,0
411,411,"PEEBLES RD + PARKWAY",,40.564091,-80.009728,,,,,,0
414,414,"PEEBLES RD + REMINGTON",,40.561447,-80.013031,,,,,,0
425,425,"BABCOCK BLVD + ROSECLIFF",,40.509858,-79.991849,,,,,,0
427,18711,"BABCOCK BLVD + EVERGREEN & PEOPLES PLANK RD",,40.506180,-79.990402,,,,,,0
428,428,"EVERGREEN RD + NELSON RUN",,40.505720,-79.995088,,,,,,0
441,441,"EVERGREEN RD + PEOPLES TWP",,40.505611,-79.995486,,,,,,0
443,443,"BABCOCK BLVD + HOFFMAN",,40.507809,-79.989708,,,,,,0
444,444,"BABCOCK BLVD + ROSECLIFF",,40.509793,-79.991594,,,,,,0
458,20178,"PEEBLES RD + PEEBLES SCHOOL DRVWY",,40.565293,-80.008536,,,,,,0
459,18714,"PEEBLES RD + DUNCAN AVE FS",,40.568337,-80.005721,,,,,,0
460,460,"PEEBLES RD + LOCUST",,40.569558,-80.003857,,,,,,0
461,461,"PEEBLES RD + SAMPLE",,40.570540,-80.002813,,,,,,0
462,462,"SAMPLE RD + EASTVIEW #1",,40.570658,-80.000769,,,,,,0
463,463,"SAMPLE RD + EASTVIEW #2",,40.571078,-79.999730,,,,,,0
464,464,"SAMPLE RD + RINGEISEN",,40.571766,-79.998505,,,,,,0
468,468,"NORTHGATE DR + #9396",,40.576433,-79.990636,,,,,,0
469,469,"NORTHGATE DR + SPRINGFIELD",,40.577794,-79.992243,,,,,,0
471,471,"SPRINGFIELD DR + PEEBLES",,40.579567,-79.994746,,,,,,0
472,472,"PRESIDENTIAL DR + CLEVELAND",,40.581934,-79.993713,,,,,,0
473,473,"PRESIDENTIAL DR + HARDING",,40.582226,-79.995172,,,,,,0
475,475,"PRESIDENTIAL DR + MADISON (LEASE OFFICE)",,40.583504,-79.998797,,,,,,0
478,478,"PRESIDENTIAL DR + BABCOCK",,40.586342,-80.000233,,,,,,0
504,504,"HEMLOCK DR AT NORTH PARK POOL PARK AND RIDE",,40.586694,-79.996333,,,,,,0
506,506,"DUNCAN AVE + ROYAL MANOR CT #1",,40.566068,-80.001590,,,,,,0
507,507,"DUNCAN AVE + ROYAL MANOR CT #2",,40.566636,-80.003578,,,,,,0
508,508,"DUNCAN AVE + ALLEGHENY MEMORIAL PARK",,40.566991,-80.004816,,,,,,0
562,19327,"PERRY HWY + MCDONALDS",,40.517924,-80.029064,,,,,,0
568,568,"PERRY HWY AT ROSS PARK AND RIDE- LOWER LOT SHELTER",,40.508811,-80.029566,,,,,,0
569,569,"PERRY HWY + CLARWIN",,40.505238,-80.028571,,,,,,0
570,570,"PERRY HWY + HANWAY",,40.504332,-80.026665,,,,,,0
571,571,"PERRY HWY + I-279 RAMP",,40.503623,-80.025527,,,,,,0
572,572,"PERRY HWY + WEST VIEW AVE FS",,40.499926,-80.021673,,,,,,0
573,573,"PERRY HWY + IVORY",,40.498325,-80.020375,,,,,,0
574,574,"PERRY HWY + CONNIE",,40.496533,-80.020025,,,,,,0
576,576,"PERRY HWY + PERRY VIEW",,40.493832,-80.022118,,,,,,0
577,577,"PERRYSVILLE AVE + BASCOM",,40.492954,-80.021996,,,,,,0
578,578,"PERRYSVILLE AVE + WALDORF",,40.491273,-80.020192,,,,,,0
579,579,"PERRYSVILLE AVE + FRANKLIN",,40.490297,-80.018670,,,,,,0
588,588,"NORTH COMMONS + WEST COMMONS",,40.453732,-80.007393,,,,,,0
617,617,"WEST VIEW PARK DR + PERRY HWY FS",,40.517479,-80.031983,,,,,,0
618,618,"WEST VIEW PARK DR + WEST VIEW TOWERS",,40.516986,-80.033418,,,,,,0
619,619,"WEST VIEW PLAZA FIRE LANE + GIANT EAGLE",,40.516673,-80.038650,,,,,,0
620,620,"WEST VIEW PLAZA FIRE LANE + UHAUL",,40.516553,-80.036697,,,,,,0
623,623,"EAST COMMONS + EAST OHIO ST NS",,40.452772,-80.003580,,,,,,0
624,624,"N. COMMONS + FEDERAL ST",,40.453973,-80.006045,,,,,,0
625,625,"NORTH AVE + BOYLE",,40.455564,-80.005715,,,,,,0
626,626,"NORTH AVE + SANDUSKY",,40.455747,-80.004727,,,,,,0
627,627,"NORTH AVE + CEDAR (AGH)",,40.456117,-80.002860,,,,,,0
633,633,"PERRYSVILLE AVE + FRANKLIN FS",,40.490481,-80.018760,,,,,,0
635,635,"PERRYSVILLE AVE + VINCETON",,40.492753,-80.021682,,,,,,0
636,636,"PERRY HWY + #4146",,40.493964,-80.021717,,,,,,0
639,639,"PERRY HWY + WEST VIEW AVE",,40.500125,-80.021776,,,,,,0
641,641,"PERRY HWY + CEMETERY LN",,40.503282,-80.024849,,,,,,0
643,643,"PERRY HWY + CLARWIN",,40.505238,-80.028328,,,,,,0
650,650,"PERRY HWY + #328",,40.518423,-80.027666,,,,,,0
651,651,"PERRY HWY + VFW",,40.517746,-80.030041,,,,,,0
704,704,"DUNCAN AVE + ALLEGHENY MEMORIAL PARK",,40.566962,-80.004952,,,,,,0
705,705,"DUNCAN AVE + ROYAL MANOR CT #1",,40.566602,-80.003709,,,,,,0
706,706,"DUNCAN AVE + ROYAL MANOR CT #2",,40.566016,-80.001668,,,,,,0
733,733,"WEST VIEW PARK DR + WEST VIEW TOWER",,40.516855,-80.033563,,,,,,0
734,734,"ROSS PARK AND RIDE AT SHELTERS (MIDDLE UPPER LOT)",,40.506752,-80.030472,,,,,,0
798,798,"CONNIE DR + MULKERIN",,40.498387,-80.023183,,,,,,0
799,799,"CONNIE DR + MERWOOD",,40.499406,-80.024634,,,,,,0
802,802,"CONNIE DR + #110",,40.500150,-80.028140,,,,,,0
803,803,"CONNIE DR + JACKS RUN",,40.499214,-80.029161,,,,,,0
809,809,"PERRYSVILLE AVE + PERRY ACADEMY",,40.489052,-80.018034,,,,,,0
810,810,"PERRYSVILLE AVE + #3835",,40.488237,-80.016822,,,,,,0
811,811,"PERRYSVILLE AVE + SEMICIR",,40.487333,-80.016344,,,,,,0
813,813,"PERRYSVILLE AVE + CHERRYFIELD",,40.485043,-80.015689,,,,,,0
815,815,"PERRYSVILLE AVE + WATSON BLVD FS",,40.483943,-80.013342,,,,,,0
816,816,"PERRYSVILLE AVE + #3418",,40.482768,-80.013405,,,,,,0
817,817,"PERRYSVILLE AVE + #3358",,40.480935,-80.013406,,,,,,0
818,818,"PERRYSVILLE AVE + DELAWARE",,40.479917,-80.012065,,,,,,0
819,819,"PERRYSVILLE AVE + MARSHALL RD",,40.478250,-80.012114,,,,,,0
820,820,"PERRYSVILLE AVE + #3000",,40.476110,-80.012407,,,,,,0
821,821,"PERRYSVILLE AVE + MARSHALL AVE",,40.475117,-80.011597,,,,,,0
824,824,"PERRYSVILLE AVE + ELLZEY",,40.471776,-80.010063,,,,,,0
825,825,"PERRYSVILLE AVE + CHARLES",,40.471083,-80.008709,,,,,,0
827,827,"PERRYSVILLE AVE + MCINTYRE",,40.468921,-80.009310,,,,,,0
828,828,"PERRYSVILLE AVE + BURGESS",,40.467682,-80.009949,,,,,,0
830,830,"PERRYSVILLE AVE + CUTLER",,40.466257,-80.011618,,,,,,0
831,831,"PERRYSVILLE AVE + LAFAYETTE",,40.464931,-80.011579,,,,,,0
832,832,"PERRYSVILLE AVE + WILSON AVE",,40.463741,-80.012195,,,,,,0
833,833,"PERRYSVILLE AVE + MCCLINTOCK",,40.463044,-80.013807,,,,,,0
834,834,"PERRYSVILLE AVE + #1923",,40.461448,-80.013643,,,,,,0
835,835,"PERRYSVILLE AVE + OHERN",,40.460316,-80.013187,,,,,,0
837,837,"PERRYSVILLE AVE + FEDERAL",,40.461155,-80.008894,,,,,,0
839,839,"FEDERAL ST + ALPINE",,40.458938,-80.007857,,,,,,0
840,840,"FEDERAL ST + SAMPSONIA",,40.457744,-80.007458,,,,,,0
842,842,"WEST VIEW PARK DR + PERRY",,40.517688,-80.031100,,,,,,0
843,843,"CENTER AVE + TOWNSHIP RD",,40.518907,-80.025409,,,,,,0
845,845,"CENTER AVE + #360",,40.517045,-80.022222,,,,,,0
847,847,"CENTER AVE + RIDGEWOOD (STEPS)",,40.515130,-80.023153,,,,,,0
848,848,"CENTER AVE + OAKWOOD",,40.514524,-80.023951,,,,,,0
849,849,"CENTER AVE + FRANKFORT AVE",,40.513492,-80.025531,,,,,,0
851,851,"CENTER AVE + PARK",,40.511549,-80.027499,,,,,,0
852,852,"CENTER AVE + PERRYSVILLE RD",,40.509950,-80.028263,,,,,,0
853,853,"CEDAR AVE + SUISMON ST",,40.454959,-80.002302,,,,,,0
858,858,"JACKS RUN RD + YORK DR",,40.499943,-80.031822,,,,,,0
859,859,"JACKS RUN RD + CONNIE",,40.499146,-80.029366,,,,,,0
860,860,"JACKS RUN RD EXT  + YORK",,40.499943,-80.031517,,,,,,0
873,873,"FEDERAL ST + NORTH AVE FS",,40.455887,-80.006700,,,,,,0
875,875,"FEDERAL ST + HENDERSON",,40.458763,-80.007621,,,,,,0
877,877,"PERRYSVILLE AVE + #1664",,40.461227,-80.009012,,,,,,0
879,879,"PERRYSVILLE AVE + OHERN",,40.460411,-80.013260,,,,,,0
880,880,"PERRYSVILLE AVE + #1923",,40.461598,-80.013489,,,,,,0
881,881,"PERRYSVILLE AVE + LANGLEY",,40.462475,-80.013306,,,,,,0
883,883,"PERRYSVILLE AVE + WILSON AVE",,40.463630,-80.012351,,,,,,0
884,884,"PERRYSVILLE AVE + CLAYTON",,40.464060,-80.011255,,,,,,0
885,885,"PERRYSVILLE AVE + LAFAYETTE",,40.464799,-80.011426,,,,,,0
886,886,"PERRYSVILLE AVE + KOERNER",,40.466451,-80.011206,,,,,,0
887,887,"PERRYSVILLE AVE + BURGESS",,40.467511,-80.009839,,,,,,0
888,888,"PERRYSVILLE AVE + MCINTYRE",,40.468736,-80.009447,,,,,,0
890,890,"PERRYSVILLE AVE + CHARLES",,40.470914,-80.008508,,,,,,0
891,891,"PERRYSVILLE AVE + ELLZEY",,40.471837,-80.009947,,,,,,0
893,893,"PERRYSVILLE AVE + KENNEDY",,40.474245,-80.010352,,,,,,0
894,894,"PERRYSVILLE AVE + MARSHALL AVE",,40.474922,-80.011113,,,,,,0
895,895,"PERRYSVILLE AVE + #3000",,40.476111,-80.012273,,,,,,0
896,896,"PERRYSVILLE AVE + WATSON BLVD",,40.478354,-80.011957,,,,,,0
897,897,"PERRYSVILLE AVE + DELAWARE",,40.479644,-80.011695,,,,,,0
898,898,"PERRYSVILLE AVE + #3358",,40.481119,-80.013367,,,,,,0
899,899,"PERRYSVILLE AVE + #3436",,40.483082,-80.013035,,,,,,0
900,900,"PERRYSVILLE AVE + WATSON BLVD",,40.484191,-80.013481,,,,,,0
902,902,"PERRYSVILLE AVE + CHERRYFIELD",,40.485052,-80.015549,,,,,,0
904,904,"PERRYSVILLE AVE + RICHEY",,40.486722,-80.016145,,,,,,0
905,905,"PERRYSVILLE AVE + #3820",,40.488096,-80.016424,,,,,,0
906,906,"PERRYSVILLE AVE + EAST ST",,40.489284,-80.018169,,,,,,0
913,913,"CONNIE DR + #110",,40.500124,-80.028087,,,,,,0
916,916,"CONNIE DR + MERWOOD",,40.499467,-80.024817,,,,,,0
917,917,"CONNIE DR + MULKERIN",,40.498524,-80.023384,,,,,,0
919,919,"CONNIE DR +  OLD CONNIE",,40.496384,-80.022881,,,,,,0
920,920,"CONNIE DR + PERRY",,40.496327,-80.020340,,,,,,0
922,922,"CENTER AVE + PERRYSVILLE",,40.509770,-80.028262,,,,,,0
925,925,"CENTER AVE + FRANKFORT AVE",,40.513314,-80.025693,,,,,,0
926,926,"CENTER AVE + OAKWOOD",,40.514329,-80.024165,,,,,,0
927,927,"CENTER AVE + RIDGEWOOD (STEPS)",,40.515096,-80.023044,,,,,,0
929,929,"CENTER AVE + HAWTHORNE",,40.516639,-80.022009,,,,,,0
931,931,"CENTER AVE + TOWNSHIP",,40.518930,-80.025228,,,,,,0
944,944,"CEDAR AVE + PRESSLEY ST",,40.451530,-80.001041,,,,,,0
959,959,"CHARLES ST + SHELTON",,40.470547,-80.011154,,,,,,0
960,960,"CHARLES ST + NORWOOD",,40.470272,-80.012608,,,,,,0
961,961,"CHARLES ST + LINWOOD",,40.470039,-80.013840,,,,,,0
963,963,"WILSON AVE + CHESTER",,40.467432,-80.013563,,,,,,0
964,964,"WILSON AVE + BURGESS",,40.466527,-80.013270,,,,,,0
965,965,"WILSON AVE + DRUM",,40.465029,-80.012784,,,,,,0
